name,locality,lat,long,review
Ovenstory Pizza,"541, 1st Floor, Binnamangla, CMH Road, Mahadevapura B.B.M.P East, Indiranagar, Bangalore",12.9781700000,77.6383200000,5111
Empire Restaurant,"35, Castle Street, Brigade Road, Bangalore",12.9672716246,77.6089762151,3587
Leon's Burgers & Wings,"90, Coles Road, Opposite Reliance Fresh, Pulkeshi Nagar, Frazer Town, Bangalore.",12.9977255096,77.6109583693,18
Truffles,"Vasavi Complex, St. Marks Road, Bangalore",12.9719284074,77.6010630280,1960
Domino's Pizza,"308, 2nd Stage, 100 Feet Road, Indiranagar, Bangalore",12.9808715513,77.6405934244,419
Biriyani Zone,"48/2A, 1st Cross, Amrutha Court, Opposite Hayagreeva School, Vignan Nagar, CV Raman Nagar, Bangalore",12.9731882362,77.6783002540,73
Sri Udupi Park,"53, Near Leela Palace, Kodihalli, Old Airport Road, Bangalore",12.9620985173,77.6494162157,193
LeanCrust Pizza- ThinCrust Experts,"1, Lower Ground, Smart Avenue, 80 Feet Road, Indiranagar, Bangalore",12.9806060000,77.6463760000,402
Meghana Foods,"57/1, 1st Floor, Jayalaxmi Chambers, Near Old Galaxy Theatre, Residency Road, Bangalore",12.9731013292,77.6092397422,2316
McDonald's,"Ground Floor, Lido Mall, Swami Vivekananda Road, Ulsoor, Bangalore",12.9727638288,77.6214709505,161
KFC,"Bagmane Tech Park, Krishnappa Garden, CV Raman Nagar, Bangalore",12.9792802000,77.6579585000,0
Burger King,"Shop GF-1C, Ground Floor, Gopalan Signature Mall, Old Madras Road, Bangalore",12.9929860000,77.6619290000,112
Imperial Restaurant,"94-95, Residency Road, Bangalore",12.9713429246,77.6057850569,453
Rotti Walla,"60, 1st Floor, GNR Enclave, Indiranagar Double Rroad, Indiranagar, Bangalore",12.9741590000,77.6359410000,11413
A2B - Adyar Ananda Bhavan,"5, Jayavani's Ishwerya Towers, Civil Station, Meeanee Avenue, Ulsoor, Bangalore",12.9877339619,77.6184407249,71
Hyderabad Biryaani House,"25, 1st Floor, NR Chambers, Murgeshpalya, Old Airport Road, Bangalore",12.9594705911,77.6560925692,1419
M.M.A Kabab and Rolls,"Opposite Indiranagar Bus Depot, Old Madras Road, Bangalore",12.9822371878,77.6339546219,114
Kailash Parbat,"68, Ibrahim Saheb Street, Tasker Town, Commercial Street, Bangalore",12.9825700000,77.6098000000,93
Bhartiya Jalpan,"14, Commercial Street, Bangalore",12.9817115166,77.6095622778,133
Pizza Hut,"124, Ground Floor, Surya Chambers, Murgeshpalya, Old Airport Road, Bangalore",12.9589157923,77.6542451978,423
Nandhini Deluxe,"63, Coles Road, Frazer Town, Bangalore",12.9960136874,77.6130320504,476
La Pino'z Pizza,"24, Shankar Plaza, 80 Feet Road, Koramangala 4th Block, Bangalore",12.9319405576,77.6322074980,792
Ambur Star Briyani Since 1890,"104/ 67-3-104, Vijay Jatti Building, 1st Main Road, Koramangala 5th Block, Bangalore",12.9347334655,77.6160508767,6
Pathaan Sir,"67, Near HDFC Bank, Coles Road, Frazer Town, Bangalore",12.9958170210,77.6136271656,133
New Punjabi Hotel,"84/3, N R Colony, Hal Post, Old Airport Road, Bangalore",12.9594542543,77.6556845382,252
Donne Biriyani House,"8k, 6th Street, Markham Road, Near Garuda Mall, Richmond Road, Bangalore",12.9687023000,77.6097824000,418
Punjab Junction,"2/3, Puneet Complex, Main Road, Opposite New City Super Market, Kaggadasapura, Bangalore",12.9852572433,77.6733975112,319
Gowdru Hotel,"60/1, Double Road, Opposite Muthoot Finance, 2nd Stage, Indiranagar, Bangalore",12.9740236535,77.6359485090,177
Nandhana Palace,"83, St. Thomas Town, Kammanahalli Main Road, Kammanahalli, Bangalore",13.0149465104,77.6358335093,1250
Five Star Chicken,"7, Ground Floor, 10th Main, Jeevan Bhima Nagar, Bangalore",12.9677517000,77.6533750000,2595
Thalassery Restaurant,"18/1, Ground Floor, Wellington Street, Shanthinagara, Richmond Town, Bangalore",12.9628132091,77.6040924531,254
Al Daaz,"64 & 65, 27th Main Road, Sector 1, Near Police Station, HSR, Bangalore",12.9207633849,77.6515194029,1568
Mani's Dum Biryani,"18/1, First Floor, Haudin Road, Ulsoor, Bangalore",12.9773633341,77.6192919910,252
Kabab Magic,"17, Ground Floor, Near Johnson Market, Hosur Road, Richmond Town, Bangalore",12.9640984409,77.6065716147,139
Polar Bear,"Shop 2, Ground Floor, Bagmane Tech Park, CV Raman Nagar, Bangalore",12.9795098279,77.6579097658,2
Kanti Sweets,"36, SNS Arcade, Old Airport Road, Bangalore",12.9589821199,77.6601316407,3585
Kritunga Restaurant,"88, Munnekolala Village, Varthur Hobli, Mahadevpura, Marathahalli, Bangalore",12.9478702025,77.6992563531,1698
MOJO Pizza - 2X Toppings,"Lower Ground Floor, Smart Avenue, 80 Feet Road, Indiranagar, Bangalore",12.9806572307,77.6461529732,9126
Corner House Ice Creams,"Shop 45/3, Gopalkrishna Complex, Near Mayo Hall, Residency Road, Bangalore",12.9736747193,77.6093218848,730
Beijing Bites,"11, Ground Floor, Pentagon Fazal, Mosque Road, Opposite More Super Market, Frazer Town, Bangalore",12.9971257318,77.6142008230,274
Andhra Gunpowder,"Jeevan Bhima Nagar Main Road, Ward 74, Shetty Palaza, Puttappa Layout, New Thippsandra, Near Jeevan Bhima Nagar, Bangalore",12.9681870000,77.6507770000,11267
Behrouz Biryani,"541, 1st Floor, Binnamangla, CMH Road, Mahadevapura B.B.M.P East, Indiranagar, Bangalore",12.9781700000,77.6383200000,3895
Paakashala,"105, Old 44, Dickenson Road, Ulsoor, Bangalore",12.9759548712,77.6148462296,5
CakeZone,"229, Ground Floor, Muniswamappa Street, Near Ganesh Temple, Banaswadi, Bangalore",13.0079940000,77.6419450000,373
Sharief Bhai,"96, Cleveland Town, Pulikeshi Nagar, Mosque Road, Frazer Town, Bangalore",12.9966847042,77.6142004877,716
BOX8 - Desi Meals,"Lower Ground Floor, Smart Avenue, 80 Feet Road, Indiranagar, Bangalore",12.9806627847,77.6461429149,16945
RNR Biryani - Taste Of 1953,"83, 1st Floor, St. Thomas Town, Main Road, Sarvagna Nagar, Kammanahalli, Bangalore",13.0150197648,77.6357109964,560
Subway,"66/1, Bagmane Tech Park, CV Raman Nagar, Bangalore",12.9790086543,77.6580535993,118
Faasos - Wraps & Rolls,"Shop 1, Maruti Sankeema, New Thipasandra Main Road, Hal 3rd Stage, Thippasandra, Bangalore",12.9713595873,77.6583509892,5507
Paradise Biryani,"438, Sector 4, HSR Layout, Near HSR, Bangalore",12.9121631831,77.6435991749,432
FreshMenu,"102B, First Floor, Motati Meadows, Above ICICI Bank, Nagawarapalya Main Road, CV Raman Nagar, Bangalore",12.9939644000,77.6638581000,18038
Taco Bell,"6, Shop G3&G4, Ground Floor, Gopalan Signature Tower, C V Raman Nagar, Nagavara Palya, Old Madras Road, Bangalore",12.9928270808,77.6614964924,1
EatFit,"327, Ground Floor, 4th Cross, Ombr Layout, Banaswadi, Bangalore",13.0084294912,77.6516910642,1955
Dindigul Thalappakatti,"18, Ramashree Arcade, MG Road, Bangalore",12.9722538202,77.6187314093,377
California Burrito,"134, KHB Colony, Koramangala 5th Block, Bangalore",12.9342067138,77.6170127839,1533
WOW! Momo,"66/1-4, A Block, Bagmane Tech Park, CV Raman Nagar, Bangalore",12.9791980000,77.6582340000,0
Potful - Claypot Biryanis,"951/2A, 2nd Floor, Seethappa Colony, HAL 3rd Stage, BEML Main Road, Thippasandra, Bangalore",12.9722005649,77.6528145745,2181
Kapoor's Cafe,"7M-215, 2nd Block, 7th Main Road, 80 Feet Road, HRBR Layout, Kalyan Nagar, Bangalore",13.0178737232,77.6430184767,744
Natural Ice Cream,"20, Ground Floor, 15/16, House Of Lords, St. Marks Road, Bangalore",12.9714556432,77.6008504629,251
Lassi Shop,"208, 2nd Main, East Of NGEF, Kasturi Nagar, Banaswadi, Bangalore",13.0033777851,77.6607140154,0
Biryani Trip - Destination Hyderabad,"Jeevan Bhima Nagar Main Road, Ward 74, Shetty Palaza, Puttappa Layout, New Thippsandra, Near Jeevan Bhima Nagar, Bangalore",12.9681870000,77.6507770000,14113
Madeena Hotel,"20/A, Block 5, KHB Colony, Near Masjid E Mamoor, Koramangala 5th Block, Bangalore",12.9352160284,77.6157328047,275
Biryani By Kilo,"504, 1st Floor, 6th Cross, Club Road, Koramangala 6th Block, Bangalore",12.9372747329,77.6244300976,311
Anand Sweets And Savouries,"8, Commercial Street, Bangalore",12.9816445417,77.6098227873,2109
Goli Vada Pav,"118/1F, Opposite Dare Building, CV Raman Nagar, Kaggadasapura, Bangalore",12.9858743834,77.6713472977,0
WarmOven Cake & Desserts,"2/4, Khatha 94, 1st Floor, East Taluk Ward 83, Hobli, Main Road, Kaggadasapura, Bangalore",12.9841203162,77.6784859970,5036
Nagarjuna,"44/1, Residency Road, Bangalore",12.9732182943,77.6093208790,2302
Kwality Wall’s Frozen Dessert and Ice Cream Shop,"41/2, 14th Cross, 2nd Stage, Indiranagar, Bangalore",12.9730421931,77.6351934671,127
EasyBites by Empire,"35, Castle Street, Brigade Road, Bangalore",12.9672850203,77.6089621335,414
"Frozen Bottle - Milkshakes, Desserts And Ice Cream","97, Kids Kemp Port, Old Airport Road, Bangalore",12.9591171747,77.6569017261,159
Amma's Pastries,"60, Appareddy Palya, Double Road, Indiranagar, Bangalore",12.9741605479,77.6357929409,487
Narmada Chain of Restaurants,"74, Ground & 1st Floor, Naseer Pride, Madhavraya, Mudaliar Raod, Frazer Town, Bangalore",13.0005897701,77.6142034144,0
Savoury Restaurant,"2nd Cross, Kaggadasapura Main Road, Varsova Layout Kaggadasapura, Bangalore",12.9854415034,77.6729227602,214
Royal Restaurant,"6, HKP Road, Broadway Road, Shivajinagar, Bangalore",12.9857280210,77.6052543148,225
Bakingo,"2, 1st Floor, 4th Cross, Jakkasandra Extension, Sarjapur Road, Near Ujivan Finance Bank, Koramangala 1st Block, Bangalore",12.9245370928,77.6386592165,6420
Vijayalakshmi Veg,"112, MM Road, Frazer Town, Bangalore",13.0009178833,77.6128007099,97
Rolls On Wheels,"3145, HAL, 2nd Stage, Opposite ESI Hospital, Indiranagar, Bangalore",12.9715520257,77.6357993111,84
The Pizza Bakery - Brew & Eatery,"86, Coconut Grove, Spenser Building, Church Street, Bangalore",12.9751560000,77.6045570000,172
Paratha Envy,"Jeevan Bhima Nagar Main Road, Ward 74, Shetty Palaza, Puttappa Layout, Thippasandra, Bangalore",12.9681870000,77.6507770000,7255
Moriz Nano Restaurant,"38/5, Meanee Avenue, Tank Road, Ulsoor, Bangalore",12.9875702856,77.6189493388,215
Call Me Chow,"41, 7th Cross, 3rd Street, Subbanapalaya, Jai Jawan Nagar, Banaswadi Main Road, Kalyan Nagar, Bangalore",13.0078137138,77.6439857483,2617
The Punjabi Rasoi,"12, Gandhinagar, Munnekollal, Bangalore, Mahadevapura, Brookefield, Bangalore",12.9554742000,77.7129847000,3042
Barbeque Nation,"1/4, Ground Floor, Lido Mall, Swami Vivekanand Road, Ulsoor, Bangalore",12.9736200000,77.6211700000,1654
Chulha Chauki Da Dhaba,"Opposite EMC 2, 2nd Floor, Mahadevapura, Outer Ring Road, Marathahalli, Bangalore",12.9818542876,77.6927037165,3278
The Belgian Waffle Co.,"126, K.H.B Colony, Koramangala 7th Block, Bangalore",12.9342100000,77.6164490000,34
Baskin Robbins,"124, Ground Floor, Surya Chambers, Murgeshpalaya, Old Airport Road, Bangalore",12.9591232702,77.6542619616,31
Great Indian Khichdi by EatFit,"327, Ground Floor, 4th Cross, OMBR Layout, Basavanagudi, Bangalore",13.0083050000,77.6518480000,356
Anjappar,"9, 1st Floor, Curzon Complex, Brigade Road, Bangalore",12.9742458211,77.6077045128,37
Glen's Bakehouse,"616, 17th Main, 80 Feet Road, Koramangala 6th Block, Bangalore",12.9378805552,77.6264068857,310
New Udupi Garden,"9, Ground Floor, Wind Tunnel Road, Murugeshpalaya, Old Airport Road, Bangalore",12.9567057333,77.6536413655,61
LunchBox - Meals and Thalis,"Shop 1, Maruti Sankeema, HAL Third Stage, New Thippasandra Main Road, Thippasandra, Bangalore",12.9713576270,77.6583540067,377
Biryani Blues,"G 02, Phoenix Arcade Showroom, Upper Ground Floor, Church Street, Bangalore",12.9746740000,77.6058510000,234
Theobroma,"82, Mosque Road, Frazer Town, Bangalore",12.9986700000,77.6154800000,11
Aroma's Hyderabad House,"Survey 88, Ground Floor, Venkatdari Building, Next to Nagarjuna Restaurant, Munnekolala, Marathahalli, Bangalore",12.9486740000,77.6988800000,136
Siddique Kabab Centre,"St Johns Church Road, Near Coles Park, Frazer Town, Bangalore",12.9934632190,77.6085272804,553
Ghee And Turmeric,"Unit 45/004 B, Upper Ground Floor, Motati Meadows, Old Madras Road, CV Raman Nagar, Bangalore",12.9938810000,77.6635950000,248
ZAZA 22 Spice Awadhi Biryani,"01 & 02, Lower Ground, Smart Avenue, 80 Feet Road, Indiranagar, Bangalore",12.9806100000,77.6463800000,792
NH1 Bowls - Highway To North,"01 & 02 Lower Ground Smart Avenue, Indiranagar, 80 Feet Road, Indiranagar, Bangalore",12.9806100000,77.6463800000,518
New Udupi Grand,"L 14, HAL 3rd Stage, Jeevan Bhima Nagar, Bangalore",12.9679584018,77.6524628699,14
WOW! China,"28/4, G-005, Ground Floor, City Center, Church Street, Bangalore",12.9750034764,77.6048379019,26
The Biryani Life,"Shop 1, Maruti Sankeema, HAL Third Stage, New Thipasandra Main Road, Thippasandra, Bangalore",12.9713612209,77.6583439484,315
Samosa Party,"Khata 241, ATR Complex 121, Airport Road, Old Airport Road, Bangalore",12.9587153000,77.6547557800,1
7 Plates,"5/5, Benson Cross Road, Benson Town, Near Family Super Market, Frazer Town, Bangalore",12.9970803223,77.6038930938,3118
UBQ By Barbeque Nation,"1/4, Ground Floor, Lido Mall, Swami Vivekanand Road, Ulsoor, Bangalore",12.9736200000,77.6211700000,1371
Smoor,"First Floor, Trinity Circle, 1 MG Road Mall, Near MG Road, Bangalore",12.9734401358,77.6202210412,556
The Dessert Heaven - Pure Veg,"229, Ground Floor, Muniswappa Sreet, Near Ganesha Temple, Banaswadi, Bangalore",13.0079940000,77.6419450000,20
Kaati Zone Rolls and Wraps,"2/4, Khatha 94, 1st Floor, Taluk Ward 83, Hobli, Kaggadasapura, Bangalore",12.9839644784,77.6786080375,1393
Chai Point,"Near Axis Bank, Trinity Metro Station, MG Road, Bangalore",12.9732728563,77.6166922599,4611
Ludos Pizza,"74-8-1308, Ward 74, Shetty Plaza, Hal 3rd Stage, Puttapa Layout, Jeevan Bhima Nagar, Bangalore",12.9681250000,77.6507868000,570
Delicacy,"Kenchappa Road Cross, Frazer Town, Bangalore",12.9984631840,77.6177061349,273
Chinese BAE,"40, Kodihalli Village, Hal 2nd Stage, Jeevan Bhima Nagar, Bangalore",12.9677649000,77.6545273000,526
Donne Biryani Mane,"3/1, Avs Layout, 80 Feet Road, Near Gkb Opticals, Koramangala 4th Block, Bangalore",12.9368767324,77.6276759058,11
The Good Bowl,"Shop 1, Maruti Sankeema, Hal 3rd Stage, New Thipasandra Main Road, Thippasandra, Bangalore",12.9712563436,77.6583835110,2057
Momoz,"40, Kodihalli Village, Hal 2nd Stage, Jeevan Bhima Nagar, Bangalore",12.9677649000,77.6545273000,1035
Mealful Rolls - India's Biggest Rolls,"Lower Ground 1, Smart Avenue, 80 Feet Road, Indiranagar, Bangalore",12.9806100000,77.6463800000,525
Biggies Burger,"65 Gold Plaza Building, Coles Road, Cleveland Road, Pulikeshi Nagar, Frazer Town, Bangalore",12.9951881000,77.6142152000,43
99 Variety Dosa & Pav Bhaji,"4th Block, Sony World Signal, Koramangala 6th Block, Bangalore",12.9368401346,77.6275635883,162
Keventers - Milkshakes & Desserts,"Shop 1, Third Floor, Garuda Mall, Commissariat Road- Magrath Road Junction, Near Brigade Road, Bangalore",12.9702092011,77.6092115790,22
Mad Over Donuts,"Magrath Road, Garuda Mall, Ashok Nagar, Brigade Road, Bangalore",12.9705032509,77.6093031093,159
FB Cakes,"45/2, Annai Reddy Building, Near Sudarshan Silk, Marathahalli, Bangalore",12.9565120000,77.6965090000,230
ITC Master Chef Creations,"18, Banaswadi Main Road, Maruthi Seva Nagar, Banaswadi, Bangalore",12.9980427400,77.6281033829,505
Ambur Biryani Point,"303, 1st Main, 1st Block, Jakkasandra, Koramangala 1st Block, Bangalore",12.9277392098,77.6373633742,22
Chung Wah,"45/1, Leo Complex, Residency Cross Road, Residency Road, Bangalore",12.9738831651,77.6094372198,353
Donne Biriyani House,"Shop 01, 1st Floor, Building 37/1, Govindappa Cross Road, Ramaswamy Palya, Kammanhalli Main Road, Kammanahalli, Bangalore",13.0108174514,77.6350744441,2633
Laddoos,"J B Nagar Main Road, HAL 3 Stage, Jeevan Bhima Nagar, Bangalore",12.9678890000,77.6528370000,203
Chaayos Chai+Snacks=Relax,"Commerz 1, Bagmane Techpark, K R Puram, CV Raman Nagar, Bangalore",12.9795016000,77.6580343000,397
Cream Stone Ice Cream,"61/64, M M Road, Frazer Town, Bangalore",13.0005875000,77.6153902000,100
Cupcake Bliss Cakes & Desserts,"94, 1st Floor, Main Road, Kaggadasapura, Bangalore",12.9840958135,77.6785047725,1045
Yumlane Pizza,"Tata Sherwood, Survey 16, 2/4, 164/1, 164/2, Basavanagar Main Road, Kaggadasapura, Bangalore",12.9694171600,77.6826716100,45
Starbucks Coffee,"Ground Floor, Ramanashree Arcade, MG Road, Bangalore",12.9728507360,77.6185205206,67
Krispy Kreme,"Krispy Kreme, Adarsh Opus, 1, Old -9, Campball Road, Near Austin Town, Richmond Road, Bangalore",12.9669276000,77.6115022000,60
Momo Zone - The Momo Company,"2/4 Khatha 94, 17th Cross, K R Puram, East Taluk, Hobli, Kaggadaspura Main Road, Kaggadasapura, Bangalore",12.9842220000,77.6782240000,237
Just Shawarma,"133, 5th Main Road, St. Thomas Town, Inasappa Layout, Kalyan Nagar, Bangalore",13.0157736206,77.6392073929,76
IDC Kitchen,"8, 1st Main, 8th Cross, Sampangiramanagar, Sri Rammandir Road, Residency Road, Bangalore",12.9659398856,77.5945318490,31
Donne Biriyani Mane,"PR Building, Nagavara Palya Main Road, CV Raman Nagar, Bangalore",12.9922521702,77.6639517769,32
Sweet Truth - Cake and Desserts,"Shop 1, Maruti Sankeema, HAL Third Stage, New Thippasandra Main Road, Thippasandra, Bangalore",12.9712596108,77.6584042981,740
ibaco,"121, Civil Station, Wood Street Junction, Brigade Road, Bangalore",12.9677287139,77.6066309586,107
Itminaan Matka Biryani - Slow Cooked,"Lower Ground 1, Smart Avenue, 80 Feet Road, Indiranagar, Bangalore",12.9806060000,77.6463760000,570
Sreeraj Lassi Bar,"30, K Kamaraj Road, Near Commercial Street, Commercial Street, Bangalore",12.9826635392,77.6107887179,181
Pure Veg Meals By LunchBox,"104, 1st Floor, Connection Point, Old Airport Road, Bangalore",12.9570900000,77.6626000000,43
Hotel Revoli Inn,"88, K H Road, Opposite Shanti Nagar Bus Stop, Shanti Nagar, Bangalore",12.9559767755,77.5920712575,65
GOPIZZA,"Shop T 09, 10/34 Orion East Avenue Mall, Food Court, Banaswadi Main Road, Banaswadi, Bangalore",13.0009569000,77.6325712000,17
Donne Biriyanis Junction,"1st Floor, Near Home Shop Super Market, Kammanahalli, Bangalore",13.0106684904,77.6350657269,874
Pasta Street,"751, 80 Feet Road, Opposite SBI Bank, Koramangala 4th Block, Bangalore",12.9330460261,77.6310799643,4060
New Tandoor,"21, Opposite Syndicate Bank, Kaggadasapura Main Road, CV Raman Nagar, Bangalore",12.9852409081,77.6675026864,276
Daily Sushi,"First Floor, 1/1-1, Museum Road, Shivajinagara, Church Street, Bangalore",12.9757908300,77.6024868300,55
Dum Biryani Adda,"39, 2nd Floor, Opposite I O C Petrol Bunk, Jeevan Bhima Nagar, Bangalore",12.9678698592,77.6544218883,3615
The Filter Coffee,"HRBR Layout, 7th Main Road, Kalyan Nagar, Bangalore",13.0178067580,77.6430312172,936
Zaatar,"1, 2 & 3, HLK 158-159/125-1 & 2, KATHA 215, Mereside Heights Nagavarapalya Village, Benniganahalli Dhakale, K R Puram Hobli, Old Madras Road, Bangalore",12.9959510536,77.6667352423,699
The Dessert Zone,"2/4, Khatha 94, 1st Floor, Kaggadaspura Main Road, Opposite 17th Cross, Kaggadasapura, Bangalore",12.9842220000,77.6782240000,194
Hamza Hotel,"19, HKP Broadway Road, Shivajinagar, Bangalore",12.9860481886,77.6049579307,308
AB's - Absolute Barbecues,"90/4, Outer Ring Road, Marathahalli, Bangalore",12.9498711952,77.6990903297,14867
Khan Saheb Grills and Rolls,"3136, Ground Floor, Sri Shiva Sai Complex, 13th Cross Road, 7th Main Road, HAL 2nd Stage, Off Double Road, Indiranagar, Bangalore",12.9712792140,77.6350965723,1058
Toscano,"Museum Road, The Museum SY - 1, Church Street, Bangalore",12.9749375000,77.6029375000,83
Just Bake,"5, Mosque Road, Opposite HDFC Bank, Frazer Town, Bangalore",12.9962577235,77.6135748625,15
Bucket Biryani,"44, Ground Floor, Castle Street, Ashok Nagar, Brigade Road, Bangalore",12.9671321125,77.6089845970,7
Ghee Tadka Khichdi,"74-8-1308, Ward 74, Shetty Plaza, Hal 3rd Stage, Puttapa Layout, Jeevan Bhima Nagar, Bangalore",12.9681250000,77.6507868000,1627
Apsara Ice Creams,"Shop 2, Ward 83, Nagvarapalya Main Road, B.B.M.P East, CV Raman Nagar, Bangalore",12.9889708410,77.6638045900,391
New Taj Darbar,"32, FM Narhana Road, Opposite Russell Market, Shivajinagar, Bangalore",12.9853641000,77.6052562000,64
Aubree,"Ramanashree Arcade, Old Kids Kemp Building, 18, Craig Park Layout, Ashok Nagar, MG Road, Bangalore",12.9729030110,77.6184883341,30
Absolute Shawarma,"63, HAL 3rd Stage, 4th Cross Road, Opposite Ganesha Temple, Thippasandra, Bangalore",12.9722368308,77.6537898928,54
Suchithra Biryani House,"121, ATR Complex, Murugeshpalya, Opposite ISRO, Old Airport Road, Bangalore",12.9590729528,77.6550951228,360
1522 - The Pub,"65, Shanthala Nagar, Residency Road, Bangalore",12.9730653901,77.6089453697,108
RS Shiv Sagar,"36, 1st Floor, Public Utility Building, MG Road, Bangalore",12.9744970662,77.6100293174,344
Chopstick,"40, Kodihalli Village, Hal 2nd Stage, Jeevan Bhima Nagar, Bangalore",12.9677649000,77.6545273000,688
Mainland China,"14, 1st Floor, Church Street, Bangalore",12.9752155149,77.6039202511,2360
Aligarh House by EatFit,"327, Ground Floor, 4th Cross, OMBR Layout, Banaswadi, Bangalore",13.0084027041,77.6517815888,321
Sangam Sweets,"7, M 227, 2nd Block, Banasawadi HRBR Layout, Kalyan Nagar, Bangalore",13.0189932939,77.6429283067,1
Hotel Fanoos,"17/1, Leonard Lane, Richmond Town, Richmond Road, Bangalore",12.9647509069,77.6064776712,847
Brik Oven,"19, Brigade Garden, Shanti Nagar, Church Street, Bangalore",12.9748603748,77.6053367928,2837
Chaatimes,"Shop 104, Dhavanam Emporium, Mahatma Gandhi Road, Near Cauvery Handicrafts Emporium, Brigade Road, Bangalore",12.9748103872,77.6083472371,1335
Sendhoor Coffee,"58, G1 & G2, Ground Floor, 7th Main, HAL 2nd Stage, Indiranagar, Bangalore",12.9705342947,77.6333655856,171
Shiv Sagar,"22, Marathi Seva Nagar, Banaswadi Main Road, Banaswadi, Bangalore",13.0021429371,77.6331432536,5
Magnolia Bakery,"Survey 40 And 41, Phoenix Marketcity, Mahadeva Pura, Devasandra Industrial Estate, Krishnarajapura, KR Puram, Bangalore",12.9979006317,77.6965657622,1674
Empire Juices and Desserts,"35, Castle Street, Brigade Road, Bangalore",12.9671736067,77.6089550927,781
Bangarpet Chats,"Vijinapura, Dooravani Nagar, Main Road, Opposite FCI Godown, Old Madras Road, Bangalore",13.0025920000,77.6676600000,1
The Thick Shake Factory,"15, St. John's Church Road, Cleveland Town, Bharatinagar, Frazer Town, Bangalore",12.9914726500,77.6115675700,7
Motis Kitchen,"3, 9th Main, Seethappa, Thippasandra, Bangalore",12.9725442737,77.6533724740,499
Sri Srinivas Pork Hotel,"147, Ejipura Road, Near Green Vine Hospital, Ejipura, Bangalore",12.9486769506,77.6274512708,41
NOTO - Healthy Ice Cream,"44/1, Ferdous Complex, Art Of Delight, Brigade Road, Bangalore",12.9730934402,77.6091707847,16
Tomba Kitchens,"28/1, 29/2, Vivek Nagar, Main Road, Ejipura, Bangalore",12.9503685320,77.6252263784,79
Cafe Coffee Day,"G02A, Ground Floor Garuda Mall Brigade Road, Bangalore",12.9705200000,77.6099600000,27
Momo Monk,"Jeevan Bhima Nagar Main Road, Ward 74, Shetty Palaza, Puttappa Layout, New Thippsandra, Bangalore, Jeevan Bhima Nagar, Bangalore",12.9681870000,77.6507770000,723
Rahhams,"82, M M Road, Frazer Town, Bangalore",13.0009093895,77.6131369919,1032
Le Arabia,"60, 60 Feet Road, Koramangala 5th Block, Bangalore",12.9335450000,77.6227283000,72
Bombay Kulfi,"81/B, 17th E Main, Koramangala 6th Block, Bangalore",12.9371642862,77.6247167587,0
Indiana Burgers,"2/4, Khatha 94, 1st Floor, Taluk Ward 83, Main Road, K R Puram, Hobli, Kaggadasapura, Bangalore",12.9839318080,77.6785765216,2161
Crusto’s - Cheese Burst Pizza,"First Floor, 897/E, 80 Feet Road, Koramangala 6th Block, Bangalore",12.9404117818,77.6251965854,18
Chichaba's Taj,"50, MM Road, Frazer Town, Bangalore",13.0003569700,77.6173373312,553
Goila Butter Chicken,"504, First Floor, Sixth Cross, Club Road, Koramangala 6th Block, Bangalore",12.9372747329,77.6244300976,123
Sukh Sagar,"62, 17th Main, 1st Cross, 100 Feet Road, Koramangala 5th Block, Bangalore",12.9333306435,77.6231560484,520
Chaitra Restaurant,"6, 80 Feet Road, Subbayyana Palya, Kalyan Nagar, Bangalore",13.0130949757,77.6424478367,64
Sichuan,"M 22, LIC Colony, 10th Main, Jeevan Bhima Nagar, Bangalore",12.9679992940,77.6531044182,1208
Third Wave Coffee,"Shop 52/2, Sujaya Pride Building, Ashok Nagar, Church Street, Bangalore",12.9745178000,77.6068982000,399
Tharavadu,"143, KHB Colony, Koramangala 5th Block, Bangalore",12.9371584044,77.6196383312,5
Shanthi Sagar,"9/1, Tank Road, Ulsoor, Bangalore",12.9871785727,77.6189074293,211
Juice Junction,"22, Opposite State Bank Of India, St. Marks Road, Bangalore",12.9721018956,77.6012196019,124
TrueCakes,"2392/3, Kacharakanahalli, Main Road Circle, St. Thomas Post, Kammanahalli, Bangalore",13.0144140486,77.6356192678,154
Kolkata Famous Kati Roll,"1&2, Impan Complex, Basavanagar Main Road, Sherwood, Kaggadasapura, Bangalore",12.9692650000,77.6825825000,11
Home Plate by EatFit,"327, Ground Floor, 4th Cross, OMBR Layout, Basavanagudi, Banaswadi, Bangalore",13.0083050000,77.6518480000,90
Lassi Corner,"Shop 103, 1st Floor, Venkataswamy Layout, Koramangala 8th Block, Bangalore",12.9444575864,77.6173530892,1
Oh! Calcutta,"14, 1st Floor, Church Street, Bangalore",12.9752164951,77.6039001346,1681
Richie Rich,"4, SNS Plaza, Kumara Krupa Road, Race Course Road, Bangalore",12.9868342308,77.5800090283,756
Calcutta Victoria Chat House,"2 M, 148, Ground Floor, 2nd Main Road, East Of NGF, Kasturinagar, Banaswadi, Bangalore",13.0012834400,77.6616953686,173
Mother's Meal,"Chowdeswari Temple Street, Byrasandra, CV Raman Nagar, Bangalore",12.9814978501,77.6668676734,162
Big Bang Pizza,"60/1-A, Ground Floor, Coles Road, Frazer Town, Bangalore",12.9948082048,77.6150259376,92
Sattvam,"138/139, 3rd Floor, Opposite Decathlon, Garudacharapalya, Mahadevpura, Whitefield, Bangalore",12.9938550000,77.7007450000,583
Al Taza,"1026, 7th Main, 80 Feet Road, Koramangala 1st Block, Bangalore",12.9307671153,77.6329554990,33
Green Onion,"43 - 44, Chandraprabha Complex, Residency Road, Bangalore",12.9734091000,77.6092974000,1369
Karavali Family Restaurant,"Ground Floor 004, Center Point building, Brigade Road, Bangalore",12.9729775029,77.6092819870,28
Main Lassi Shop,"12, 2nd Floor, RB Super Market, 2nd Street, Chandni Chowk Road, Shivajinagar, Bangalore",12.9851821017,77.6035893336,7957
Haka,"14, 1st Floor, Church Street, Bangalore",12.9752243362,77.6039232686,362
Firangi Bake,"Shop 1, Maruti Sankeema, HAL Third Stage, New Thippasandra Main Road, Thippasandra, Bangalore",12.9712618978,77.6584163681,1445
Chung's Chinese Corner,"13, 106, West Minster Building, Cunningham Road, Bangalore",12.9890949869,77.5939481333,244
Snack House,"60/1, 1 Floor, Close Road, Frazer Town, Bangalore",12.9947390000,77.6150500000,502
Kulfi Shulfi- Kulfis and Ice Cream,"Unit 0B, Geetanjali Classik, 9th Cross Road, CV Raman Nagar, Bangalore",12.9845375168,77.6756512374,4
Fresh Bites,"11, 2nd Floor, 4th Cross, Dodda, Banaswadi, Bangalore",13.0092785100,77.6496730372,261
Cake Menu,"22/37, Maruti Nilaya, Anand Nagar, Outer Ring Road, Marathahalli, Bangalore",12.9570840000,77.7027180000,2416
SLAY Coffee,"104, First Floor, Connection Point, Airport Exit Road, Konena Agrahara, Sarvagna Nagar, B.B.M.P East, Old Airport Road, Bangalore",12.9570432554,77.6623816788,575
Taj Hotel,"383, Jumma Masjid Road, OPH Road, Shivajinagar, Bangalore",12.9853425126,77.6072015986,171
Burger Seigneur,"1, Ground Floor, Sobha, St. Marks Road, Bangalore",12.9750423556,77.6025714353,184
Tapri By The Corner,"70/1, 4th Cross, 17B Main Road, KHB Block, Koramangala 5th Block, Bangalore",12.9355693385,77.6211708784,177
Hotel Navayuga,"1, Anupama Theater Complex, SC Road, Gandhi Nagar, Majestic, Bangalore",12.9766550197,77.5756708905,281
Dum Safar Biryani,"86, 1st Cross, Ward 68, Opposite Kotak Mahindra Bank, Koramangala 1st Block, Bangalore",12.9255192000,77.6369965000,79
Gramin,"Ground Floor, Raheja Arcade, Koramangala 7th Block, Bangalore",12.9346909856,77.6132932305,3662
Sri Murugan Cafe,"Nagavarapalaya Road, CV Raman Nagar, Bangalore",12.9927667115,77.6639112085,11
Habibi Falafel,"4, Smart Avenue, Nehru Road, Kammanahalli, Bangalore",13.0142108635,77.6370576024,13
Delhi Food Point,"117, 1st Main, Jakkasandra Extension, Koramangala 1st Block, Bangalore",12.9271941437,77.6377429068,525
Sree Krishna Kafe,"5th Main, Near Muni Reddy Kalyana Mantap, Koramangala 5th Block, Bangalore",12.9371142911,77.6194375008,958
FB Café By Frozen Bottle,"97, Kids Kemp Port, Mahadevapura, Old Airport Road, Bangalore",12.9591171747,77.6569017261,12
Al Zara Mandi Arabian Restaurant,"137, 1st - 3rd Floor, MM Road, Frazer Town, Bangalore",13.0007398416,77.6143617556,76
Say Cheese Cake,"4, 3rd Floor, Asha Mansion, 6th Cross Road, Koramangala 6th Block, Bangalore",12.9370959922,77.6246879250,2497
Maharaja Military Canteen,"Shop 33/1, Ground Floor, Leemans Complex, Cunningham Road, Bangalore",12.9850407453,77.5963615820,66
Hotel Salala,"77, Murugeshpalya, Old Airport Road, Bangalore",12.9589687237,77.6553573087,100
Tandoori Taal,"45/1, Prestige Trade Tower, High Grounds, Sampangi Ramanagar, Race Course Road, Bangalore",12.9858185174,77.5876905397,84
Namma Madurai,"200, 6th Cross, Thippasandra, Bangalore",12.9716529823,77.6507747546,62
Swiss Cream,"Shop 18, 1st Main Road, 4th Cross Road, Pai Layout, Mahadevpura, Old Madras Road, Bangalore",12.9943590059,77.6666326448,114
Sindhoora Gardenia,"Mahadevapura, Near Metro Cash And Carry, KR Puram, Bangalore",12.9938830000,77.7012517000,0
Tawakkal Mubarak Hotel,"Gujari Line, Near Jumia Masjid, HAL Post, Old Airport Road, Bangalore",12.9617436851,77.6701768488,12
Kabab Biryani Corner,"Shop 12, Vivek Nagar, Kashi Vishwanath Main Road, Near Richmond Road, Bangalore",12.9565655618,77.6196698472,39
Kanti Bakes & Flakes,"02, GTL Mansion, Ground Floor, 1st Main, Pai Layout, Bennignahalli, Old Madras Road, Bangalore",12.9934847807,77.6673642173,241
Olio - The Wood Fired Pizzeria,"First Floor, 897/E, 80 Feet Road, Koramangala 6th Block, Bangalore",12.9404117818,77.6251965854,20
Savitha Family Restaurant,"72/33, 80 Feet Road, 4th Block, Koramangala 4th Block, Bangalore",12.9355464648,77.6285566762,291
Louis Burger,"897/E, 2nd Floor, 80 Feet Road, Near Perfect Yamaha Showroom, Koramangala 6th Block, Bangalore",12.9402673000,77.6252286000,1316
Fiero! Pizzeria,"15, 19th Main, 60 Feet Road, Koramangala 6th Block, Bangalore",12.9375867937,77.6191149652,266
Lakeview Milkbar,"89, Kannan Building, MG Road, Bangalore",12.9758931222,77.6037961990,1698
Hyderabadi Biryani Utsav,"First Floor, Pai Layout, Tin Factory, Old Madras Road, Bangalore",12.9951045123,77.6664059982,233
Juicy,"326, Church Street, Murgesh Palya, Old Airport Road, Bangalore",12.9590406058,77.6553864777,142
Asia Kitchen By Mainland China,"14, 1st Floor, Church Street, Bangalore",12.9752289102,77.6039051637,6
Karim's Delhi 6,"23 - 29, Ground Floor, Unit 1, 3, 4 & 5, White House, St. Marks Road, Bangalore",12.9721685464,77.6008943841,55
Kunafa World,"39/1-2, Gold Mani, Cleveland Town, Pulikeshi Nagar, Coles Road, Frazer Town, Bangalore",12.9953325415,77.6141421497,101
Malabar Hotel,"262/4, 1st Cross, C. V. Raman Nagar, Kaggadasapura, Bangalore",12.9854947558,77.6720148325,0
Carols Pastries & Bakers,"14/2, Ground Floor, 8th Main, Hoysala Nagar, Thambu Chetty Palya, Rammurthy Nagar, Bangalore",13.0176496347,77.6690338925,421
Keventers Ice Cream,"Shop 1, Third Floor, Garuda Mall, Commissariat Road- Magrath Road Junction, Near Brigade Road, Bangalore",12.9702082210,77.6101583987,75
Boss Burger,"52, 53, Ground Floor, Shanthala Nagar, Ashok Nagar, Lavelle Road, Bangalore",12.9717888979,77.5983345509,294
Carols Pastries & Bakers,"Shop 35, Ground Floor, 7th Main Road, Vasanth Nagar, Bangalore",12.9926053253,77.5920558348,633
Just Cakes,"69, Tavarekere Main Road, Krishna Murthy Layout, Sadduguntepalya, BTM, Bangalore",12.9284963530,77.6094050333,174
Church Street Social,"46/1, Cobalt Building, Haridevpur, Shanthala Nagar, Church Street, Bangalore",12.9754670858,77.6025556773,8003
Salt - Indian Restaurant Bar & Grill,"2nd Floor, Nexus, Koramangala 7th Block, Bangalore",12.9348380315,77.6115142554,1725
BigBites,"Jeevan Bhima Nagar Main Road, Ward 74, Shetty Palaza, Puttappa Layout, New Thippsandra, Near Jeevan Bhima Nagar, Bangalore",12.9681870000,77.6507770000,309
Dawat Durbar,"5, HKP Road, Broadway Road, Shivajinagar, Bangalore",12.9857672252,77.6051550731,446
Karama Restaurant,"55, Mosque Road, Frazer Town, Bangalore",12.9997143846,77.6159767807,4122
No Sugar Please!,"234, 3rd cross Road, Jakkasandra Extension, Koramangala 1st Block, Bangalore",12.9278750000,77.6407050000,254
Giani Icecream,"12, Mosque Road, Near Apollo Pharmacy, Frazer Town, Bangalore",12.9971781000,77.6141739000,6
Burger It Up,"Old 2/4, Khatha 94, 1st Floor, Kaggadaspura Main Road, Near 17th Cross, KR Puram, Bangalore",12.9842220000,77.6782240000,90
Udupi Krishna Grand,"220, 10th Main, 1st Block, HRBR Layout, Kalyan Nagar, Bangalore",13.0176228486,77.6524501294,12
Umpire Chicken County,"12, Opposite Sri Balaji Theatre, Richmond Road, Bangalore",12.9565714432,77.6197120920,650
Sagar Delicacy,"12, Ulsoor Lake, Ulsoor, Bangalore",12.9874726025,77.6185996458,99
Kouzina Kafe - The Food Court,"Old 2/4, Khatha 94, Kaggadaspura Main Road, Mahadevapura, KR Puram, Bangalore",12.9842220000,77.6782240000,160
Chianti,"12, MG Road, Bangalore",12.9723530000,77.6187210000,846
Manjit Da Dhaba,"107, First Floor, Wheeler Road, Near Railway Cross, Cox Town, Frazer Town, Bangalore",12.9979587818,77.6221653074,832
Food Adda,"127, 1st Floor, KHB Colony, 17th Main, Near Jyothi Nivas College, Koramangala 5th Block, Bangalore",12.9341583519,77.6167918369,7
Just Bake - Cakes & Confectioners,"Maruthinagar Main Road, Madiwala, 1st Stage, BTM, Bangalore",12.9240639119,77.6148224249,837
Udupi Shanthi Sagar,"68/2, Pulikeshi Nagar, Coles Road, Frazer Town, Bangalore",12.9958649003,77.6130931430,9
Shahi Family Restaurant,"12/1, Swami Vivekananda Road, Jayaraj Nagar, Ulsoor, Bangalore",12.9754942032,77.6225837320,409
Al Noor,"76, Arrmstrong Road, Bharathi Nagar, Shivajinagar, Bangalore",12.9879058056,77.6119648665,61
Sweet Bake - Cake & Desserts,"11, 2nd Floor, RNS Bike Showroom, BS Complex, Kammanahalli, Bangalore",13.0140700000,77.6404300000,549
The Bangalore Creamery,"86, Jakkasandra Village, Sarjapur Road, BTM Layout, Near IIFL Gold Loan, Koramangala 1st Block, Bangalore",12.9250877200,77.6374217123,3245
O4H - Order For Health,"74-59-13, 1st Floor, BEML Road, Near More Store, Thippasandra, Bangalore",12.9716150000,77.6557780000,147
Tunday Kababi,"41, Ground Floor, Rayyan Towers, Church Street, St. Marks Road, Bangalore",12.9758423848,77.6019299991,3
Sheesh Kebab,"55, MM Road, Opposite Post Office, Frazer Town, Bangalore",13.0003850647,77.6166138053,183
Dhaba - Estd 1986 Delhi,"42/A, Old House 148/11, Katha 296, Jakkasandra Village, Sarjapur Main Road, Koramangala 1st Block, Bangalore",12.9244665078,77.6387423649,127
Mega Biryani,"Jeevan Bhima Nagar Main Road, Ward 74, Shetty Palaza, Puttappa Layout, New Thippsandra, Near Jeevan Bhima Nagar, Bangalore",12.9681870000,77.6507770000,92
GLOBO Ice Creams Of The World,"NLower Ground, 01 & 02, Smart Avenue, 80 Feet Road, Indiranagar, Bangalore",12.9806100000,77.6463800000,41
Mr. Chow,"32, Aga Abbas Ali Road, Yellappa Chetty Layout, Ulsoor, Bangalore",12.9780936000,77.6177654000,188
Punjabi Tandoor,"52/1, 1st Floor, 1st Floor ,New Thippasandra Post, Malleshpalya Main Road, Kaggadasapura, Bangalore",12.9733406000,77.6753207000,170
Lion King,"Shop 7, 5th Main, 7th Cross, Marutinagar, Malleshpalya, Near Chaitanya School, Kaggadasapura, Bangalore",12.9766546930,77.6757032052,163
Pind Punjabi,"5C-414, Banasawadi, Near Old Police Station, Rammurthy Nagar, Bangalore",13.0119529495,77.6676337793,25
Kabab Korner,"22, Opposite SBI Bank, St. Marks Road, Bangalore",12.9719721878,77.6010227948,228
No.10 Fort Cochin,"9, Halycon Complex, 2nd floor, St. Marks Road, Bangalore",12.9707670000,77.6006860000,302
Kachori Chowk,"504, 2nd Floor, 6th Cross, Near Apollo Pharmacy, Koramangala 6th Block, Bangalore",12.9371630000,77.6246730000,169
Little Italy,"Building 7, HRBR Layout, 2nd Block Extension, Kalyan Nagar, Bangalore",13.0228470639,77.6430352405,646
Nasi And Mee,"974, 80 Feet Road, Koramangala 4th Block, Bangalore",12.9349347550,77.6291863248,2889
Art of Delight,"44/1, Residency Road, Bangalore",12.9734280473,77.6092987508,2080
Thali 99,"Shop 6, 1st Street Jayarajnagar, Halasuru, HAL 1st Stage, B.B.M.P East, Ulsoor, Bangalore",12.9815977600,77.6260846800,37
KC Das - Sweet Bite,"3-D, Wheeler Road, Frazer Town, Bangalore",12.9944628934,77.6155154407,35
Delicious Momos,"1783, 3rd Main Road, Saint Thomas Town, Kammanahalli, Bangalore",13.0154655779,77.6335921884,151
Zwarma,"34/2, Sivanchetty Garden, Pulikeshi Nagar, Meanee Avenue Tank Road, Ulsoor, Bangalore",12.9881687981,77.6177000999,6
Samosa Singh,"5, First Floor, New Thippasandra Main Road, Opposite Meenakshi Electrical, Thippasandra, Bangalore",12.9721848824,77.6535642520,2856
North Indian Bhukkads - NIB,"42A/A, Old 148/11, Katha 269, BDMP 68-327-98/1, Jakkasandra Village, Koramangala 1st Block, Bangalore",12.9246600000,77.6388000000,930
Barley & Grapes Cafe,"Lower Ground Floor, Phoenix Market City, Mahadevpura, Whitefield, Bangalore",12.9979284000,77.6963599026,1193
Food Manthra,"12/1, Swami Vivekananda Road, Jayaraj Nagar, Ulsoor, Bangalore",12.9755445173,77.6225414872,143
ITC Sunfeast Baked Creations,"18, Maruthi Seva Nagar, Main Road, Banaswadi, Bangalore",12.9980915816,77.6280093125,381
The Brooklyn Creamery - Healthy Ice Cream,"11, SNS Arcade Complex, Old Airport Road, Bangalore",12.9589420000,77.6601550000,33
Delhi 6 Chandni Chowk,"22, 1st Cross, Kaggadasapura Main Road, Kaggadasapura, Bangalore",12.9856100816,77.6719987392,126
Brahmins Tiffin Centre,"Shop 2, 200, 3rd Main, 6th Cross, Hal 3rd Stage, Thippasandra, Bangalore",12.9716020139,77.6507878304,730
India Sweet House,"61, MM Road, Frazer Town, Bangalore",13.0005703023,77.6154195551,0
Grow Fit,"504, 2nd Floor, 6th Cross, BTM Layout, B.B.M.P South, Koramangala 6th Block, Bangalore",12.9373208069,77.6244887710,7372
Udupi Food Point,"15, Ground Floor, Ramaiah Reddy Layout, Sarvagna Nagar, Banaswadi, Bangalore",13.0059085511,77.6495231688,4
Oru Vadakkan Cafe,"183, KHB Block, 4th A Cross Road, Koramangala 5th Block, Bangalore",12.9362901869,77.6202220470,77
Malabar,"40, Near IBP Petrol Pump, Jeevan Bhima Nagar, Bangalore",12.9677836038,77.6544460282,183
Tamarind - Tamarind Hospitality,"1, 9th B Main, Chairman Layout, Near Banaswadi Fire Station, Banaswadi Main Road, Banaswadi, Bangalore",13.0124739833,77.6476835087,614
Simpli Namdhari's,"Unit SF-210, 2nd Floor, Garuda Mall, Magrath Road, Ashok Nagar, Bangalore",12.9703253215,77.6099521684,38
Paratha Corner,"6, Vijaya Complex, Kagadassapura Main Road, CV Raman Nagar, Bangalore",12.9853075554,77.6648006961,55
Paratha Plaza,"Shop 3, Sapthagiri Complex, Kaggadasapura Main Road, Vignan Nagar, CV Raman Nagar, Near TVS Showroom, Kaggadasapura, Bangalore",12.9746921159,77.6786975563,536
AL Bain Restaurant,"1, 5th Main, 60 Feet, Bescom Road, Kullappa Circle, Kammanahalli, Bangalore",13.0152663136,77.6392925531,33
Oh My Shawarma,"48, 6th Cross, Club Road, B.B.M.P South, Koramangala 6th Block, Bangalore",12.9364810185,77.6250875741,4
The Betel Leaf Co - Originally from Bangalore,"646, 100 Feet Road, Koramangala 6th Block, Bangalore",12.9370884766,77.6264655590,358
Smoke House Deli,"52/ 53, Ground Floor, Lavelle Road, Bangalore",12.9717464243,77.5983583555,3126
Chef's Cap,"23, NR Colony, 5th Cross, BDA Layout, Murugespalya, Old Airport Road, Bangalore",12.9610300986,77.6572848111,7202
New Taj Hotel,"Shop 8, Near Old Airport HAL, Islampur Gujuri Road, Old Airport Road, Bangalore",12.9616103779,77.6698315144,60
Kenny's Restaurant,"5, Bachanna Layout, B Channasandra, Near Chaya Hospital Banaswadi, Bangalore",13.0108426049,77.6593206078,39
Lassi Shop,"16/2, Nandidurga Road, Jayamahal, Frazer Town, Bangalore",13.0005085506,77.5995710492,246
Go Native,"25, Ground & 1st Floor, Lavelle Road, Bangalore",12.9688189943,77.5970487669,269
Mangalore Pearl - Seafood Restaurant,"5/1, Skywalk Building, Assaye Road, Ulsoor, Bangalore",12.9909169715,77.6193791628,235
Baba Ganoush Cafe,"LG 02, Smart Plaza, 64, Coles Road, Frazer Town, Bangalore",12.9950783000,77.6142918000,18
Barkaas- Arabic Restaurant,"90/2, First Floor, Kishan Icon, Near Innovative Multiplex, Marathahalli, Bangalore",12.9511821337,77.6994477957,859
Chandni Chowk 2 Bangalore,"60/2, 2nd Floor, Nehru Road, Kammanahalli, Bangalore",13.0146554532,77.6346526667,283
Sri Ganesh Juice Junction,"184, KHB Colony, 17 Main Road, Koramangala 5th Block, Bangalore",12.9365659778,77.6199615374,26253
Karim's - Original From Delhi 6 Jama Masjid,"43/2, Silver Springs Layout, Sai Baba Temple Road, Near Kundalahalli, Marathahalli, Bangalore",12.9547890000,77.7149320000,22
Raffaele's Ristorante Pizzeria,"Builders NGV Club, National Games Village, Koramangala 6th Block, Bangalore",12.9424179672,77.6253454015,162
The Biryanis,"39, First Floor, Opposite IBP Petrol Pump, Jeevan Bhima Nagar, Bangalore",12.9678381669,77.6543933898,434
Restaurant Chef Pillai,"E 1/94, Opposite Phoenix Market, Whitefield Main Road, Mahadevapura Layout, RHB Colony, ITPL Main Road, Whitefield, Bangalore",12.9949480000,77.6974945000,91
Bake N Bloom,"Block C, Patrick's Complex, Residency Road, Bangalore",12.9715637877,77.6064670086,44
The Fatty Bao,"25/4, Opposite Harley Davidson, Lavelle Road, Bangalore",12.9705731694,77.5976834446,82
Tibb's Frankie,"84/85, Safina Plaza, Infantry Road, Tasker Town, Near Prestige Building, Shivajinagar, Bangalore",12.9799793058,77.6072977974,1
Sweet Chariot,"10th Main, Jeevan Bhima Nagar, Bangalore",12.9682468999,77.6511723921,320
The Pastry Zone,"11, 2nd Floor, Above RNS Bike Service BS Complex, PNS Layout, Subbayianiah Palyam, Nehru Road, Kalyan Nagar, Bangalore",13.0140333000,77.6404309000,1276
Mizo Kitchen,"348, K.H.B Block, 17th-B, Main Road, Koramangala 5th Block, Bangalore",12.9332479705,77.6230159029,99
Rajpurohit Sweets,"118, 2nd Cross, 2nd Main, Kasturi Nagar, Banaswadi, Bangalore",13.0029792370,77.6609594375,69
Kentacky Chicken Corner,"10, Raja Ram Mohan Roy Road, Richmond Road, Bangalore",12.9667689000,77.5957074000,167
Grill Hut,"59, Nanjundeshwara Nilaya, Kaggadaspura Main Road, Kaggadasapura, Bangalore",12.9846612915,77.6751302012,0
Lavonne,"4/2, Ground Floor, Samrah Plaza, St. Marks Road, Bangalore",12.9694168986,77.6004729420,202
The Kebabwalla,"74/2A, 1st Floor, K R Gardens, Koramangala 8th Block, Bangalore",12.9434958000,77.6205049000,37
Happy Belly Bakes,"6/2, Primrose Road, MG Road, Bangalore",12.9716730000,77.6126100000,210
Chinita Real Mexican Food,"25, 5 Cross Road, KHB Colony, Koramangala 5th Block, Bangalore",12.9354399385,77.6226118952,1250
Plan B,"148 & 149, St, Thomas Building, Ashok Nagar, Brigade Road, Bangalore",12.9696393970,77.6065327227,4646
Login 2 Eat,"972, S.T. Bed, 1St Main Road, Koramangala 4th Block, Bangalore",12.9352684000,77.6299585000,160
Sri Krishna Nanda Gokul Veg Restaurant,"Shop 2, East Of NGEF Layout, Kasturi Nagar, Banaswadi, Bangalore",13.0101719531,77.6578004658,8
Copper Chimney,"Municipal 66/1, 67/1, Garudachar Palya, Whitefield Main Road, Mahadevapura, Whitefield, Bangalore",12.9944130000,77.7000610000,577
The Coorg Food Co.,"466, Ground Floor, 17th G Main, 80 Feet Road, Koramangala 6th Block, Bangalore",12.9409485292,77.6243013516,12
FoodX Restaurant,"76/77, Padmavati Complex, 14th Cross, 8th Main Road, Vasanth Nagar, Bangalore",12.9923586722,77.5942153484,103
Paratha Plaza,"770, 80 Feet Road, Koramangala 4th Block, Bangalore",12.9313396225,77.6326909661,152
Arabian Hot Spot,"302, 5th Main Road, HRBR Layout, Kalyan Nagar, Bangalore",13.0201074000,77.6395511000,411
Steve's Fast Food,"303 H, Shamanna Building, KR Garden Road, Murugeshpalya, Old Airport Road, Bangalore",12.9566260000,77.6553300000,91
Taste Of Tibet,"5, Rest House Road, Indo Dubai Plaza, 2nd Floor, Brigade Road, Bangalore",12.9735125000,77.6069371000,425
Bhojohori Manna,"668/B, Koramangala 6th Block, Bangalore",12.9374459580,77.6242762059,2192
Rajhans,"14, Old 11, St. Marks Road, Bangalore",12.9710018279,77.6007639617,114
The Tea Brewery,"982, Ground Floor, 1st Main Road, Koramangala 1st Block, Bangalore",12.9293021835,77.6347156987,5552
Shyamji's Chole Bhature,"Shop 3, 70/1, Ground Floor, 17th Cross, B Main, Koramangala 5th Block, Bangalore",12.9354820000,77.6212050000,49
Pizza Stop,"Airlines Hotel, 4, Madras Bank Road, Lavelle Road Area, Lavelle Road, Bangalore",12.9730366389,77.5999686867,1000
Brindavan Upachar,"2, Sri Sadashiva Temple Road, Ramaswamypalya, Kammanahalli, Bangalore",13.0112238271,77.6351528987,8
The Salad Studio,"462, Khb Colony, 17th C Main, Koramangala 5th Block, Bangalore",12.9345932817,77.6194398478,2033
Kabab Magic Roll,"Shop 12, Vivek Nagar, Kashivishwanatha Main Road, Near Shri Balaji Theatre, Richmond Road, Bangalore",12.9565515120,77.6196671650,12
New Green Gardenia,"502/3, Kallkere Village, Near Bharat Petrol Nunk, B.B.M.P East, Rammurthy Nagar, Bangalore",13.0320124486,77.6704930142,54
Sri Basaveshwara Khanavali,"14th Cross, Behind Bagmane Tech Park, Byrasandra Main Road, GM Palaya, CV Raman Nagar, Bangalore",12.9778563432,77.6665763184,9
Saffron Vegetarian Cuisine,"2, Maruthi Towers, 9th B Main, Chairmans Layout, 100 Feet Road, Banaswadi, Bangalore",13.0129861959,77.6478129253,705
Foodism.in,"60/2, 2nd Floor, Nehru Road, Kammanahalli, Bangalore",13.0147233992,77.6346231624,1821
The Baklava Company,"Level 4, 1 MG Road Mall, Trinity Cirlce, MG Road, Bangalore",12.9733238243,77.6201808080,38
Not Just Parathas,"2, First A Main, Vignan Nagar Main Road, Kaggadasapura, Bangalore",12.9724132593,77.6785929501,139
Chaat Point,"19, Saunders Road, Frazer Town, Bangalore",12.9956236213,77.6109013706,210
Anupam's Coast II Coast,"56, Church Street, Bangalore",12.9743905566,77.6075435802,1311
Artinci - Indulge Guilt Free!,"11, SNS Arcade Complex, Old Airport Road, Bangalore",12.9589293000,77.6600596000,735
Saapad Raman,"23, Nehru Road, Sarvagna Nagar, Kammanahalli, Bangalore",13.0148570000,77.6337322000,110
The Only Place,"13, Museum Road, Church Street, Bangalore",12.9733153296,77.6034914330,3122
Mamagoto,"42/A, Old House 148/11, Katha 296, Jakkasandra Village, Sarjapur Main Road, Koramangala 1st Block, Bangalore",12.9243799105,77.6387691870,41
MISU,"4th Floor, Building 9, Halcyon Complex, St. Marks Road, Bangalore",12.9706744531,77.6006975770,2744
Jalandhar Junction,"4C, 319, 4th Main, OMBR Layout, Banaswadi, Bangalore",13.0084882921,77.6516461372,14
Hyderabad Biryani Zone,"32, Horamavu Main Road, Raghavendra Nagar, Rammurthy Nagar, Bangalore",13.0207701959,77.6732959226,23
Simply Andhra,"23, Nehru Road, Sarvagna Nagar, Kammanahalli, Bangalore",13.0148570000,77.6337322000,621
Appu's Donne Biryani,"Ground Floor, BMTC TTMC Building, 80 Feet Road, Koramangala 6th Block, Bangalore",12.9407084000,77.6254214000,11
Pizza House,"66/3, Pulakeshi Nagar, ST Johns Church Road, Frazer Town, Bangalore",12.9933354826,77.6086342335,0
Sendhoor Nataraaj Restaurant,"Near Sai Baba Temple, Cambridge Layout, Ulsoor, Bangalore",12.9706169501,77.6334694773,14
Homely MealBox,"22, 49/18, Ground Floor, 6th A cross, Jakkasandra Extension, Koramangala 1st Block, Bangalore",12.9221800000,77.6390200000,450
Kartiks Mithai Shoppe,"9/1, Old 186/2, PID 83-79-9, Versova Layout, 1st Main Road, Kaggadasapura, Bangalore",12.9856463455,77.6682932675,133
Dairy Day Ice Creams,"11, SNS Arcade Complex, Old Airport Road, Bangalore",12.9589206934,77.6601239294,46
Paratha Box by EatFit,"327, 4th Cross, OMBR Layout, Banaswadi, Bangalore",13.0084425581,77.6517141983,125
Puliyogare Palace,"80, Seethamma Road, Venkateshappa Layout, R S Palya Kammanahalli, Bangalore",13.0129162000,77.6370731500,26
Arabian Mataam,"MM Road, Pulikeshi Nagar, Frazer Town, Bangalore",13.0004990768,77.6176816598,95
B Track,"21, Ground Floor, Nehru Road, Kammanahalli, Bangalore",13.0145460208,77.6350952312,9
Coastal Machali Co.,"136, Cears Plaza, Plaza Residency Road, Near Richmond Circle, Residency Road, Bangalore",12.9657957986,77.5978363305,254
Hotel Green Tara,"180, 2nd Floor, Manohar Crest, Brigade Road, Bangalore",12.9728520429,77.6071080565,73
Maedah,"12, 3rd Cross, Venkataswamy Reddy Layout, Koramangala 8th Block, Bangalore",12.9440726675,77.6173249260,1824
Gudbud,"Ground Floor, 972/A, ST BED Koramangala, Ejipura, Bangalore",12.9352223000,77.6300763000,209
Mane Holige,"507, Club Road, 6th Main, Koramangala 6th Block, Bangalore",12.9369613647,77.6246657968,188
Nando's,"Unit-15, Upper Ground Floor, Phoenix Market City, Krishnarajapura, Whitefield Main Road, Whitefield, Bangalore",12.9974320000,77.6965400000,4823
Layer Bites,"27, 1st Cross, Ground Floor, Vinayaka Nilaya, Lakshmi Layout, Marathahalli, Bangalore",12.9558410000,77.7053760000,218
Nomad Pizza - Traveller Series,"72/4, Roopena Agrahara, Madiwala, Hosur Road, Bommanahalli, Bangalore",12.9122715036,77.6270724959,637
Sundae Everyday Ice Creams,"2/4, Khatha 94, 1st Floor, East Taluk Ward 83, Hobli, Kaggadasapura, Bangalore",12.9839556574,77.6785151660,189
HRX by EatFit,"327, 4th Cross, OMBR Layout, Banaswadi, Bangalore",13.0084321046,77.6517232507,11
Rannaghar,"12-13/1A, Vignan Nagar, New Malleshpalya Extn, Bangalore Urban, Kaggadasapura, Bangalore",12.9721950107,77.6784906909,177
Hyderabad Biryaani House,"227, 1st Floor, 80 Feet Main Road, Kalyan Nagar, Bangalore",13.0187789310,77.6433408667,0
Lhenzom Tibetan Restaurant,"356, 4th E Main Road, OMBR Layout, Banaswadi, Bangalore",13.0083465165,77.6521477103,6
Yak's Kitchen,"28, Rest House Road, Shanti Nagar, Bangalore",12.9737374491,77.6068277657,204
The Mangalorean,"4, Ground Floor, Sai Dwarka, Arivand Nagar, Sarvagna Nagar, Thomas Town Post, Kammanahalli, Bangalore",13.0143880844,77.6328887939,235
Maalgaadi By Dhaba Estd 1986 Delhi,"42/A, Old House 148/11, Katha 296, Jakkasandra Village, Sarjapur Main Road, Koramangala 1st Block, Bangalore",12.9244766381,77.6387420297,540
Sarathi Kitchen,"184, KHB Colony, 17th E Main, Koramangala 5th Block, Bangalore",12.9366414608,77.6199960709,137
Mr. Momo,"32, Aga Abbas Ali Road, Yellappa Chetty Layout, Ulsoor, Bangalore",12.9780143000,77.6176412000,111
Fabelle Chocolates - WelcomHotel By ITC Hotels,"46, Victoria Layout, Richmond Road, Bangalore",12.9688013512,77.6144221053,21
Manasa Fishland,"80 Feet Road, Subbianaipalya, Opposite Patil Public School, Kalyan Nagar, Bangalore",13.0146574132,77.6426097751,206
Hotel Shangrila,"181, Brigade Road, Bangalore",12.9729964525,77.6071268320,137
New Krishna Sagar,"205/A-1, Nagavarapalya Main Road, Opposite More Mega Store, CV Raman Nagar, Bangalore",12.9930068304,77.6637851447,81
Sri Krishna Nandagokula Veg,"18, Shirdi Sai Baba Mandir Road, Airports Authority of India Colony, Someshvarapura Layout, Indiranagar, Bangalore",12.9703928189,77.6322681829,9
Porkeats,"67, 17th B Main, 6th Cross, Koramangala 6th Block, Bangalore",12.9368966651,77.6243452728,32
Baking Bad,"462, Shri Krishna Temple Road, Indiranagar, Bangalore",12.9791770000,77.6437070000,397
DA Ying Yang Cuisines,"18, Benson Town, Millers Road, Vasanth Nagar, Bangalore",12.9975069750,77.6008209586,20
A1 99 Veriety Dosa Corner,"Opposite Indian Overseas Bank, 7th Main Road, Malleshpalya, Kaggadasapura, Bangalore",12.9737593391,77.6736885309,120
Fujan,"68, Near Mosque, MM Road, Frazer Town, Bangalore",13.0006000000,77.6150800000,69
Wat-a-Burger! India Ka Burger,"97, Near BDA Colony, Murgeshpallya, Old Airport Road, Bangalore",12.9591932000,77.6566391000,213
Bengali Dhekur,"921, 1st Main Road, Koramangala 1st Block, Bangalore",12.9296841841,77.6338382810,339
Sea Rock,"6/4, 1st & 2nd Floor, Shivanandha Complex, Kumara Park East, Seshadripuram, Bangalore",12.9868789888,77.5791507214,709
Roti Curry & Co,"6, 1st Street Jayarajnagar, Halasuru, HAL 1st Stage, Ulsoor, Bangalore",12.9815977600,77.6260846800,149
Bowl Soul,"102B, First Floor, Motati Meadows, Nagavarapalya, Main Road, Mahadevapura, CV Raman Nagar, Bangalore",12.9939644000,77.6638581000,22
The Noodle Theory,"2, Kumara Park East, Kumara Krupa Road, Seshadripuram, Bangalore",12.9876179837,77.5802651793,22
The Sugar Free Keto Kafe - Artinci,"11, SNS Arcade Complex, HAL, Old Airport Road, Bangalore",12.9589293000,77.6600596000,57
Bidadi Thatte Idli,"3, Deviamma Nilaya, 2nd Main, Vignana Nagar, Kuvempu Road, Kaggadasapura, Bangalore",12.9728079910,77.6800432262,9
Kolkataz,"43, New Tippasandra Posr, Shantinagar, Byrasandra Main Road, Near Bagmane Techpark, CV Raman Nagar, Bangalore",12.9797136000,77.6656997000,103
Zamindar,"412, 3rd Floor, 4th Cross Road, 2nd Block, HRBR Layout, Kalyan Nagar, Bangalore",13.0224113085,77.6378847286,581
Drunken Monkey,"634, Ground Floor, Front Portion, 5th cross, 15th main, Koramangala 4th Block, Bangalore",12.9345615851,77.6289670542,6
Connie's Steakhouse Kitchen,"972 H, 1st A Main, South, St. Bed Layout, Koramangala 4th Block, Bangalore",12.9356197000,77.6298687000,289
Naachiyar's,"36/1, Ground Floor, Haudin Road, Ulsoor, Bangalore",12.9774433787,77.6192071661,232
Goli Vada Pav No 1,"97, HAL, Ramagiri, Murgesh Pallya, Old Airport Road, Bangalore",12.9592474302,77.6568536460,0
Kanti Sweets,"65, Ground Floor, Bluemoon Complex, MG Road, Bangalore",12.9752690963,77.6071543247,2
Cream Stone,"621/B, 12th Main, HAL 2nd Stage, Indiranagar, Bangalore",12.9704251644,77.6470900700,846
Natraj Chole Bhature,"33, 1st Stage, Opposite Punjab National Bank, Indiranagar, Bangalore",12.9823325860,77.6379460841,35
Sri Udupi Grand,"29, Castle Street, Ashok Nagar, Brigade Road, Bangalore",12.9674411953,77.6084266976,80
Cravisthan,"40, Main Layout, Kempegowda Service Road, Domlur, Bangalore",12.9611147227,77.6355096325,4434
Fabelle Chocolates - ITC Green Center,"18, Food Court, Level-4, ITC Limited - Foods Division Green Centre, Banaswadi Main Road, Maruthiseva Nagar, Banaswadi, Bangalore",12.9980296726,77.6280909777,22
Midnight Hunger Solutions 24/7,"17th, F Main, CMH Road, Indiranagar, Bangalore",12.9784850000,77.6331678000,5871
Amul Ice Cream Parlour,"34, 5th Cross, Jai Jawan Nagar, Subanapalaya, Banaswadi, Bangalore",13.0063054612,77.6427868009,14
Elixir-Luxury Pearls Drink,"42, 3rd Cross Road, Aga Abbas Ali Road, Ulsoor, Bangalore",12.9779523966,77.6177356392,250
The Tasty Planet,"28/1, Vellari Amman Temple Street, Vannarpet Layout, Richmond Road, Bangalore",12.9561809884,77.6209402084,658
JIANG Pure Veg,"21/24, PID 76-1-21/14, Vasudev Adigas, MG Road, Bangalore",12.9728556368,77.6167992130,46
Vinay Upahar,"6, DK Street, Near Russel Market, Shivajinagar, Bangalore",12.9856884901,77.6058598235,20
Tewari Bros Mithai Shoppie,"27, Dickenson Road, Commercial Street, Bangalore",12.9799959718,77.6127162203,73
Copper + Cloves @ The Organic World,"12th Main, 7th Cross Rd, HAL 2nd Stage, Indiranagar, Bangalore",12.9703732000,77.6450599000,15
SLV Grand,"29, Castle Street, Ashoknagar, Brigade Road, Bangalore",12.9674081960,77.6084300503,31
Pass Me The Curry,"10/2, Meanee Road, Near Sivan Shetty Garden, Ulsoor, Bangalore",12.9873246076,77.6188541204,77
Too Much Chutney,"15, Govindappa Lane, Kodihalli, HAL 3rd Stage, Indiranagar, Bangalore",12.9660892002,77.6489796862,10
Vapour Pub & Brewery,"773, HAL 2nd Stage, 100 Feet Road, Indiranagar, Bangalore",12.9693714840,77.6411318779,7839
Munchies,"1-A, Albert Street, Brigade Tower, Richmond Town, Bangalore",12.9678607332,77.6059495261,85
Voosh Desi Parathas,"169/B, 13th Main, Indiranagar, Bangalore",12.9685730000,77.6440300000,0
Chota Hussain,"621/B, 12th Main, Thippasandra, Bangalore",12.9704313721,77.6471896470,0
The Jalsa,"212/A, Kitchen 6, 2nd Stage, 60 Feet Road, Domlur, Bangalore",12.9655105649,77.6380429789,0
Chaat Paavlian,"21/24, PID 76-1-21/14, Mahatma Gandhi Road, Craig Park Layout, Ashok Nagar, Near Trinity Circle, MG Road, Bangalore",12.9729526723,77.6165309921,122
BIB - Breakfast In The Box,"1, 1st Floor, Near DCB Bank, Koramangala 4th Block, Bangalore",12.9243210897,77.6390022039,388
"Biryanist, The Club","42, 17th A Main, Indiranagar, Bangalore",12.9631030000,77.6424242000,0
Tasty Fast Food,"184, Swami Vivekananda Road, Near Sampurna Montfort College, Binna Mangala, Indiranagar, Bangalore",12.9854581909,77.6465123392,0
Hokart - Sri Sai Durga 99 Variety Dosa,"575/A, Swami Vivekanand Park, 1st Cross Road, Defence Colony, Indiranagar, Bangalore",12.9703450000,77.6454917000,15
Mumbai 99 Variety Dosa Special,"40, 1&2, Gound Floor, Near United Bank Of India, Brigade Road, Bangalore",12.9736355132,77.6074530557,0
Brown Burger Co,"4/3, Sree Complex, MSREC Road, Mathikere, B.B.M.P, Yeshwantpur, Bangalore",13.0300872200,77.5627855584,1
Euphoria Bakers,"556, Jeevan Bima Nagar Main Road, HAL 3 Stage, Jeevan Bhima Nagar, Bangalore",12.9683625605,77.6507439092,14
Kavuni Kitchen,"343, 8th Main, Malleshpalya, Thippasandra, Bangalore",12.9752295637,77.6742360368,235
Potli B,"23, 3rd Floor, Double Road, Domlur, Bangalore",12.9675421536,77.6366284490,0
One Two Cafe,"1154, HAL 2nd Stage, Indiranagar, Bangalore",12.9703170194,77.6433742046,14
Amrutha Sweets,"236, Shirdi Sai Baba Mandir Road, Someshvarapura Layout, Jogupalya, Ulsoor, Bangalore",12.9701461437,77.6315590739,7
Britalian,"11/1, Jayamahal Extension, Nandi Durga Road, Opposite Indian Bank, Frazer Town, Bangalore",12.9993932546,77.6000266895,179
Tiara's Eats,"877, 1st Main Service Road, BDA Layout, Bhoomi Reddy Colony, Thippasandra, Bangalore",12.9762894268,77.6550364494,22
Thalassery Juice World,"C 45/48, Near Sathya Mini Super Market, Kammanahalli Main Road, Ulsoor, Bangalore",12.9863014000,77.6353461000,0
Cafe Inn,"21, Albert Street, Ashok Nagar, Richmond Road, Bangalore",12.9679691837,77.6063835248,0
Tiny Cafe,"3555, 3rd Cross, Service Road, Doopanahalli, Indiranagar, Bangalore",12.9645159286,77.6397038044,0
Cafe Igniite,"28A, 5th Floor, Residency Road, Brigade Road, Bangalore",12.9718882208,77.6071050391,0
Dilkhush Mukhwas,"Shop 1, 1st Floor, Gopalan Signature Mall, Old Madras Road, Bangalore",12.9929160100,77.6618837938,0
Shawarma Social,"108/109, GMR Pride, Main Road, Beml Circle, Thippasandra, Bangalore",12.9716307653,77.6581052318,0
Dinesh Food Corner,"16, Somanath Mudaliar Street, Vannarpet, Near Balaji Theatre, Ejipura, Bangalore",12.9569141933,77.6193077490,0
Tindi_Biryani,"13, MES Colony, Flourmill Road, Old Airport Road, Bangalore",12.9572294968,77.6616883278,0
Yohan Kitchen,"136/41, Grape Garden, Ejipura Main Road, Vivek Nagar, Ejipura, Bangalore",12.9502286837,77.6223741844,0
The Arabs,"3047, 80 Feet Road, Indiranagar, Bangalore",12.9717360000,77.6449727000,0
Kerela Nandan,"117/A, Ground Floor, 16th Main, 13th Cross, 1st Stage, Tavarekere Main Road, BTM, Bangalore",12.9162092396,77.6101077721,0
The Nawab Kitchen,"117/A, Ground Floor, 16th Main, 13th Cross, 1st Stage, Tavarekere Main Road, BTM, Bangalore",12.9728512000,77.6404991000,0
Arabian Kabza House,"117/A, Ground Floor, 16th Main, 13th Cross, 1st Stage, Tavarekere Main Road, BTM, Bangalore",12.9213120000,77.6110280000,0
Swamy's Naati Kitchen,"373, HAL 2nd Stage, 100 Feet Road, Indiranagar, Bangalore",12.9724761681,77.6413664746,4
Neriah,"483, 8th Cross, 10th Main, HAL 3rd Stage, Jeevan Bhima Nagar, Bangalore",12.9682860000,77.6515413000,0
Bengali Bhoj,"16th Main, 13th Cross, 1st Stage, Tavarekere Main Road, BTM, Bangalore",12.9166775335,77.6105298847,0
Sandhya Veg,"29, Castle Street, Ashok Nagar, Brigade Road, Bangalore",12.9673098515,77.6086345688,6200
i-Bar - The Park Bangalore,"The Park Bangalore, 14/7, MG Road, Bangalore",12.9740331283,77.6199038699,688
Cafe Idly,"38, Kenchappa Road Cross, Frazer Town, Bangalore",12.9984520767,77.6178295165,72
Caraway Kitchen - Conrad Bengaluru,"Conrad Bengaluru, Kensington Road, Someshwarpura, Ulsoor, Bangalore",12.9753138563,77.6201335341,331
Brahmin Home Food,"HVS NEST, A3, 17th E Cross, Near Royal Enfield, CMH Road, Indiranagar, Bangalore",12.9776995213,77.6329226419,127
All Saints Bakery,"126/2, Opposite Brigade Towers, Brigade Road, Bangalore",12.9670229859,77.6066799089,243
Crispy Crust Pizza,"15, Ground Floor, Muneeshwara Temple Street, 3rd Main Road, HAL 3rd Stage, Indiranagar, Bangalore",12.9661020000,77.6483579000,229
Churmur Chaat Company,"Shop 01, Property 70, PID 77-12-70, 7th Corss, SR Nagar, BT Muniyappa Road, Residency Road, Bangalore",12.9662884000,77.5944123000,88
Sri Manjunatha Tiffin Centre,"1430/1, 6th Cross, Leela Palace Road, Kodihalli, Jeevan Bhima Nagar, Bangalore",12.9668289104,77.6500713453,59
Marine Sea Food,"1/32, Assaye Road, Ulsoor, Bangalore",12.9886118010,77.6193684340,48
Bangalore Thindies,"Site 1083, 5th Cross, 12 Main, HAL 2nd Stage, Indiranagar, Bangalore",12.9699788619,77.6387430355,50
Chikkanna Tiffin Room,"96, Osborne Road, Hermit Colony, Ulsoor, Bangalore",12.9875846604,77.6181731746,47
Knead-O Breads,"79, Ground Floor, Bazaar Street, Opposite Infant Jesus Church, Sampangi Garden, Koramangala 8th Block, Bangalore",12.9527754988,77.6185319255,13
The Burger Hub,"189, 4th Cross, Jai Jawan Nagar, Subbanna Palya, Banaswadi, Bangalore",13.0077827000,77.6427288000,212
Meera's Kitchen Home Made,"15, 10th A Cross, R A Road, Viveknagar Post, Ejipura, Bangalore",12.9544214841,77.6215266064,0
Sri Ganesh Darshini,"Shop 08, Rifco Santhosh Appartments, Wind Tunnel Main Road, Nal, Murgeshpalya, Old Airport Road, Bangalore",12.9575980584,77.6539327204,8
Nanav Store & Cafe,"2286, 14th A Main Road, HAL 2nd Stage, Indiranagar, Bangalore",12.9672739116,77.6421055198,96
Eddy's Cafe,"314, 6th Main, Defence Colony, 2nd Stage, Indiranagar, Bangalore",12.9738782643,77.6448531076,265
Little White Kitchen,"15, 1st Floor, St Patricks Complex, Brigade Road, Bangalore",12.9705905000,77.6065978000,35
SG Foods,"855, 5th Cross, 1st Stage, Indiranagar, Bangalore",12.9819090000,77.6413280000,0
Cafe Plume,"5, Stage 2, 1st Main Road, Indiranagar, Bangalore",12.9639108977,77.6402501017,7
Acha's Food,"38/1, Third Floor, Appareddy Palya, Indiranagar, 2nd Stage, Shanthinagara B.B.M.P East, Karnataka, Indiranagar, Bangalore",12.9739182000,77.6370849000,0
Begum's Authentic Hyderabadi Kitchen,"9, Parappa Field, Neelasandra, Richmond Road, Bangalore",12.9571249403,77.6134085655,59
Heights & Bites By Jula,"29, Sindhi Colony, Assaye Road, Frazer Town, Bangalore",12.9949522750,77.6174590364,0
Sri Vinayaka Tiffin Center,"3346/3347, 13th Main, 2nd Stage, Indiranagar, Bangalore",12.9683655010,77.6385743916,32
Bheemavarma's Biryani,"21/B, Basement Krishna Reddy Layout, Indiranagar, Bangalore",12.9565207148,77.6368712042,217
Chai Corner,"80, Bhoomi Reddy Colony, HAL 3rd Stage, Thippasandra, Bangalore",12.9740184260,77.6496170461,0
Hot N Cool,"80, HAL 3rd Stage, Bhoomi Reddy Colony, Thippasandra, Bangalore",12.9740197329,77.6496891305,0
Cocoberry,"212/A, First Floor, 1 Main Road, Domlur 2 Stage, Indiranagar, Bangalore",12.9654161404,77.6379615068,0
Bonomi,"755/7, 4th Floor, Near HDFC Bank, Krishna Temple Road, 1st Stage, Indiranagar, Bangalore",12.9792154000,77.6448547000,0
Mother's Special,"364, 4th Cross, 8th Main, Near Vivek Nagar Police Station Road, Ejipura, Bangalore",12.9394653585,77.6299091801,0
Flo,"3, MSR West Park, Church Street, Bangalore",12.9744251886,77.6068488881,530
Vamsi Tiffin Centre,"11, 3rd Main, 1st Cross, Bazaar Street, Ayyapa Temple Block, Vivek Nagar Post, Richmond Road, Bangalore",12.9578691000,77.6169983000,41
Priyanshi Bakery,"201, SMP Residency, Krishnamurti Nagar, New Baiyappanhalli, Indiranagar, Bangalore",12.9891600000,77.6456200000,0
Biriyani Zone,"95, EPIP Zone, Opposite Vydehi Hospital, Whitefield, Bangalore",12.9759881961,77.7269344032,238
Domino's Pizza,"Leisure Well, SJR I Park, 13, 14, 1, EPIP, ITPL Main Road, Near Satya Sai Medical Institute, Whitefield, Bangalore",12.9816474800,77.7266460700,84
Leon's Burgers & Wings,"1611, Prashanth Residential Layout, Pattandur Agrahara, Krishnaraja Puram, Hobli, Whitefield, Bangalore",12.9826543383,77.7483551504,122
Potful - Claypot Biryanis,"11, Ground Floor, Arya Hub, Kadugodi Main Road, Near Hope Farm Junction, Whitefield, Bangalore",12.9834230000,77.7511380000,11868
Burger King,"G-9 and G-10, Ground Floor, Ascends Park Square, ITPL Main Road, Whitefield, Bangalore",12.9870015013,77.7366265655,412
Shanmukha,"Opposite Cosmos Mall, Kundalahallitpl Main Road, Brookefield, Bangalore",12.9658634313,77.7182024717,599
Hotel Abooz- Eat 'N' Meet Restaurant,"107/1, Pattandur, Agrahara, Whitefield, Bangalore",12.9829163000,77.7335348000,15
Red Rhino,"4th Floor, Uptown Square, Seegehalli, Hoskote Road, Near Alliance 10 Downing Villas, Whitefield, Bangalore",13.0247030988,77.7614996955,6637
Pizza Hut,"LG/02, Lower Basement, Ascendas Park Square Mall, Whitefield, Bangalore",12.9869136190,77.7363083884,601
Sri Udupi Food Hub,"908/216, Nallurahalli, Siddapura Road, Whitefield, Bangalore",12.9687846054,77.7354912880,12
KFC,"Ascendas Park Square, 3rd Floor, ITPL Main Road, Whitefield, Bangalore",12.9870113023,77.7367589995,388
Empire Restaurant,"66/2, 67/1, Garudacharpalya, Whitefield Main Road, Mahadevapura, Whitefield, Bangalore",12.9938761569,77.6992697641,39278
Meghana Foods,"Near Technoiogy Mangement Centre, TMC Rahpit India Main Road, Brookefield, Bangalore",12.9769778127,77.7110939473,16454
Mani's Dum Biryani,"7, Trijal Commerspace, 1st Floor, Prashanth Layout, ITPL Main Road, Near Hope Farm Circle, Whitefield, Bangalore",12.9846472891,77.7495548129,604
T’s 21 Spice Biryani,"FC - 11, 4th Floor, Ascendas Park Square Mall, Mahadevapura, ITPL Main Road, Whitefield, Bangalore",12.9869578000,77.7369498000,1972
Kritunga Restaurant,"2nd Floor, Sriven Square, Gulmohar Road, Kundalahalli Gate, Opposite Shankar Eye Hospital, Brookefield, Bangalore",12.9558173259,77.7130965516,539
Sri Udupi Park,"1, Katha 157/8, Pattandur, Agrahara Village, Hobli, K R Puram, B.B.M.P East, Prashant layout, Whitefield, Bangalore",12.9825158682,77.7484081686,6
Beijing Bites,"Level 1, 1st Floor, Inorbit Mall, Whitefield, Bangalore",12.9798410000,77.7273480000,647
Moriz Restaurant,"614, C Block, AECS Layout, Kundalahalli, Brookefield, Bangalore",12.9647486332,77.7178259566,1859
Orbis Restaurant,"156, 3rd Cross, 11th Main, Kempapura Village, ITPL Main Road, Whitefield, Bangalore",12.9846000000,77.7492000000,74
Paradise Biryani,"10 - 12, Virginia Mall, Ramgondanahalli, Varthur Hobli, Whitefield, Bangalore",12.9578186070,77.7457239479,2055
McDonald's,"Ground Floor, Ascendas Park Square, ITPL Main Road, Whitefield, Bangalore",12.9870900371,77.7362252399,338
Cakes Wagon,"Ventaka Subbiha Complex, ITPL Main Road, Nallurhalli, Whitefield, Bangalore",12.9719666336,77.7347118035,75
The Bake Feast,"243, Aswathappa Building, RSR Colony, Immadihalli Main Road, Near Axis Bank ATM, Whitefield, Bangalore",12.9672280000,77.7597070000,3356
Imperio Restaurant,"3, A Square Plaza, Ground Floor, ITPL Main Road, Near Brookefield Mall, Brookefield, Bangalore",12.9622893292,77.7167027816,2841
M.M.A Kabab and Rolls,"39/2, Munnekolala, Varthur Hobli, ITPL Main Road, Marathahalli, Bangalore",12.9567717488,77.7152533128,685
U.P. Dhaba,"107/P2, Arun Compound, Opposite HCL, ITPL Main Road, Whitefield, Bangalore",12.9841850036,77.7340177819,290
Onesta,"FC-02, Food Court Level 4, International Tech Park, Whitefield, Bangalore",12.9864057000,77.7367313000,14
MOJO Pizza - 2X Toppings,"120-P, A3, 1st Floor, Santosh Tower, 3rd Road, KIADB, EPIP Zone, Near ITPL, Whitefield, Bangalore",12.9773933917,77.7249217406,5464
CakeZone,"1, 1st Floor, Narayanappa Building, Nallurahalli, Dr BR Ambedakar Road, Whitefield, Bangalore",12.9693390000,77.7352040000,3425
Sri Alok Park,"Survey 87, Alok Plaza, Sadaramangala Industrial Area, Whitefield Road, Opposite ITPL, Whitefield, Bangalore",12.9878715022,77.7340533212,108
WarmOven Cake & Desserts,"Khata No 208/176/1, Hope farm, Pattandur Agrahara, Whitefield, Shop no 12, Second Floor, Arya Hub Mall, Mahadevapura, Whitefield, Bangalore",12.9833130000,77.7519460000,10101
Madurai Idly Shop,"Phase 1, Siddapura, Nallurahalli Main Road, Brookefield, Bangalore",12.9592013603,77.7319920436,26
The Punjabi Rasoi,"222/220/A, Sadaramangala, Whitefield Road, Near Whitefield, Bangalore",12.9879668216,77.7299898515,2353
Hyderabadi Handi Biryani,"832, 2nd Cross, Rajapalya Bus Stop, Mahadevapura Post, Opposite Printo, Whitefield, Bangalore",12.9909666291,77.7209919691,4786
Sri Lakshmi Vaibhav,"289, Opposite Whitefield Bus Stop, Near Jamia Masjid, Whitefield, Bangalore",12.9691813310,77.7497117221,194
Akshatha Nati Style,"123, Opposite Brigade Tech Gardens, Brookefield, Bangalore",12.9651413000,77.7182179000,83
Dil Se Dilli,"956, 1st Floor, 1st Main, Rajapalya, Hoodi, ITPL Main Road, Whitefield, Bangalore",12.9906065000,77.7214918000,257
New Udupi Delicacy,"Vijayanagar, KIADB Export Promotion Industrial Area, Whitefield, Bangalore",12.9801338431,77.7271714434,55
A2B - Adyar Ananda Bhavan,"Khatha 208/176/1, Hope Farm Circle, Pattandur Agrahara, Whitefield Main Road, Whitefield, Bangalore",12.9835404161,77.7521444857,536
Kanti Sweets,"518, VV Arcade, 1st Main, AECS Layout, B Block, Kundalahalli, Brookefield, Bangalore",12.9647770587,77.7170078829,15347
Andhra Gunpowder,"Second Floor, Saptgiri Arcade, KEB Colony, Industrial Area, Hoodi, ITPL Main Road, Whitefield, Bangalore",12.9917026716,77.7133500203,3587
BOX8 - Desi Meals,"120-P, A3, 1st Floor, Santosh Tower, 3rd Road, Near ITPL, Whitefield, Bangalore",12.9773757492,77.7249505743,9627
FreshMenu,"161, Khatha No 255, Site 12, Whitefield Main Road, Patandur, Agrahara, Whitefield, Bangalore",12.9862141528,77.7449913695,30007
Biryani Trip - Destination Hyderabad,"Saptgiri Arcade, Second Floor, KEB Colony, Industrial Area, Hoodi, ITPL Main Road, Whitefield, Bangalore",12.9917026716,77.7133500203,2396
Chakh Le India,"6, Shamma Reddy Complex, Kundanahali, Brookefield, Bangalore",12.9575516615,77.7144336328,204
Pepe's Pizza,"Plot 7, 2nd Floor, Near Prashant Layout, I.T.P.L Main Road, Whitefield, Bangalore",12.9846063000,77.7496865000,50
Kidilum,"140, Pattandur Agrahara, ITPL Backgate, Whitefield, Bangalore",12.9842342000,77.7335404000,272
Dhaba Square,"91, Ground Floor, Nallurhalli Circle, Dr Ambedkar Statue, Whitefield, Bangalore",12.9694142848,77.7353092656,940
Kidilum Grand,"107/4, ITPL Back Gate, Pattandur Agrahara Road, Whitefield, Bangalore",12.9840843788,77.7333556116,12
Grill Factory,"Survey 166, Pattanduru Agrahara Village, ITPL Main Road, Whitefield, Bangalore",12.9802699000,77.7574881000,90
Nandhana Palace,"66/2/67/1, Whitefield Main Road, Garudacharpalya, Mahadevpura, Whitefield, Bangalore",12.9938585156,77.6992754638,3014
Al-Bek,"710, Thubarahalli, Varthur Main Road, Whitefield, Bangalore",12.9559996473,77.7215314284,31786
Five Star Chicken,"Shop 4, Narasaraju Complex, Hoodi, Mahadevapura, ITPL Main Road, Whitefield, Bangalore",12.9921623296,77.7177464962,2
Thalassery Restaurant,"66/2, 67/1, Garudacharpalya, Mahadevpura, Main Road, Whitefield, Bangalore",12.9938594957,77.6992687583,31
Imperial Restaurant,"Site 1 & 2, Shop A, Ground Floor, Saroj Square, Kundanahalli Gate Main Road, Marathahalli, Bangalore",12.9560012810,77.7115070075,419
Polar Bear,"14/54, Ground Floor, The Planet, Unilever Research Centre, Whitefield, Bangalore",12.9639667686,77.7483380958,54
Corner House Ice Creams,"Ground Floor, Brookefield Mall, ITPL Main Road, Marathahalli, Bangalore",12.9659134000,77.7181728000,0
Chickpet Donne Biriyani House,"Shop 1, MR Complex, Immadihalli, Nagondahalli Main Road, Opposite HP Petrol Bunk, Whitefield, Bangalore",12.9708626000,77.7676195000,4
Behrouz Biryani,"122/3, Kundhanahalli, Mahadevpura, ITPL Main Road, Whitefield, Bangalore",12.9650240659,77.7183623984,4494
Ovenstory Pizza,"14/P1, First Floor, Umashankar Avenue, Hagdur Road, Whitefield, Bangalore",12.9624615172,77.7492782101,4934
Sharief Bhai,"Site 39/2, Ground Floor, Khata 1765/742, N S Complex, ITPL Main Road, Ashwathnagar Cross Road, Near Kundalahalli Signal, Munnekolalu, Brookefield, Bangalore",12.9567191070,77.7147990974,3512
Subway,"12, Floor 4, Food Court, Ascendas Park Square Mall, Whitefield, Bangalore",12.9870005212,77.7366513759,152
Faasos - Wraps & Rolls,"122/3, Kundhanahalli, Mahadevpura, ITPL Main Road, Whitefield, Bangalore",12.9650410558,77.7181786671,4952
Taco Bell,"TFKT-17, 3rd Floor, Forum Shantiniketan Mall, Krishnarajapura, Thigalarapalya, Whitefield Main Road, ITPL Main Road, Whitefield, Bangalore",12.9895928361,77.7276596028,0
Chicking,"710, Thubarahalli, Whitefield, Bangalore",12.9561025707,77.7216206118,6934
EatFit,"2nd Floor, Orbis Tower, Prashanth Extension, Hope Farm Junction, Kadigodi, Whitefield, Bangalore",12.9847417000,77.7489265000,421
Dindigul Thalappakatti,"710, Thubarahalli, Whitefield, Bangalore",12.9560656490,77.7215468511,3984
California Burrito,"FC 11, 4th Floor, Ascendas Park Square Mall, Mahadevapura, Whitefield, Bangalore",12.9869018578,77.7367975563,362
WOW! Momo,"4th Floor, Food Court 12, Ascendas Park Square Mall, International Tech Park, Whitefield Road, Whitefield, Bangalore",12.9870322112,77.7370101213,7
Kapoor's Cafe,"176, Thubarahalli, Whitefield Main Road, Near Kundalahalli Gate, Whitefield, Bangalore",12.9561277297,77.7199469134,3338
Natural Ice Cream,"14/P1, Hagadur Road, Whitefield, Bangalore",12.9624108737,77.7492842451,963
Lassi Shop,"32, MCC Tower, Opposite Sigma Tech Park, Varthur Main Road, Whitefield, Bangalore",12.9566054241,77.7443221584,197
New Naidu Hotel,"412, VNR Complex, Kodigehalli Main Road, Ayyappa Nagar, KR Puram, Bangalore",13.0044319747,77.7152017504,19
Asha Tiffins,"B Block, AECS Layout, Opposite BBMP, Brookefield, Bangalore",12.9644094879,77.7144812420,66
Biryani By Kilo,"20/A-3, First Floor, EPIP Area, Near ITPL, Whitefield, Bangalore",12.9773884910,77.7249338105,2578
Anand Sweets and Savouries,"65, Whitefield Main Road, Mahadevapura, Whitefield, Bangalore",12.9680309347,77.7499470860,171
Goli Vada Pav No. 1,"ITPL Mail Road, Kundanahalli, Opposite Brookefield Mall, Brookefield, Bangalore",12.9662927514,77.7182628214,172
Nagarjuna,"88, Munnekolala Village, Varthur Hobli, Mahadevapura, Marathahalli, Bangalore",12.9483779738,77.6989281178,1523
Kwality Wall’s Frozen Dessert and Ice Cream Shop,"03, Ground Floor, Poornima Complex, Mahadevapura, Whitefield, Bangalore",12.9701030000,77.7499010000,33
EasyBites by Empire,"Site 4, Survey 7/3, Varthur Hobli, Mahadevapur A, BBMP East, Brookefield, Bangalore",12.9601332115,77.7162310481,1258
Truffles,"28/1, BBMP Khata 355, Hoodi Village, Whitefield, Bangalore",12.9938118375,77.7033171908,603
Pizza@99,"948, Venkatesh Reddy Building, Rajapalya Hoodi, Whitefield, Bangalore",12.9913459216,77.7210144326,884
Wendy's,"Asset 1196/2416, MS Commercial Building, Seghalli Road, Kadugodi, Whitefield, Bangalore",13.0174618053,77.7623757720,586
Sardarji Londonwaley,"06, Siddapura, Mahadevapura, B.B.M.P East, Opposite Croma, Whitefield, Bangalore",12.9563989243,77.7326951176,5526
Chinese Wok,"710, Varthur Main Road, Thubarahalli, B.B.M.P East, Whitefield, Bangalore",12.9560535596,77.7215451747,1808
"Frozen Bottle - Milkshakes, Desserts and Ice Cream","111 & 123/2, Ground Floor, Brookfields Mall, ITPL Main Road, Brookefield, Bangalore",12.9658330456,77.7181330696,5883
Amma's Pastries,"39, Ground Floor, MSM Towers, Ayyappa Nagar, Hoodimain Road, KR Puram, Bangalore",13.0032128124,77.7127880976,1600
Ashraya Upachar,"Shri Manjunathashwara Building, Battarahalli, KR Puram, Bangalore",13.0200221533,77.7089153230,230
Narmada Chain of Restaurants,"1180/166/2-3, 42/2, Sai Towers, Munekollala, Varthur Hobli, Marathahalli, Bangalore",12.9554363324,77.7130285343,0
Meat and Eat,"8/1, Immadahalli Main Road, Opposite KEB Office, Whitefield, Bangalore",12.9692982980,77.7539693937,51
Bakingo,"1, 2nd Floor, AECS Layout, ITPL Main Road, Kundalahalli, Marathahalli, Bangalore",12.9673203067,77.7162763104,4462
Rolls On Wheels,"197/9, First Floor, Whitefield, Bangalore",12.9635896735,77.7482254295,46
The Pizza Bakery,"Old 66, Survey 66/1, Ground Floor, Miraya Rose, Siddapur Village, Brookefield, Bangalore",12.9567465758,77.7323424071,154
Paratha Envy,"Saptgiri Arcade, Second Floor, KEB Colony, Industrial Area, Hoodi, ITPL Main Road, Whitefield, Bangalore",12.9917026716,77.7133500203,834
Call Me Chow,"2nd Floor, AP Arcade, Nagondanahalli, Immadihalli Main Road, ITPL Main Road, Whitefield, Bangalore",12.9732062000,77.7701619000,795
Barbeque Nation,"Unit 01-01, Ascendas Park Square Mall, ITPL Main Road, Whitefield, Bangalore",12.9873560000,77.7359310000,3044
Chowman,"1765/742, Site 39/2, Aswanth Nagar Cross, Kundanhalli Gate, Munnekolalu, Brookefield, Bangalore",12.9569220000,77.7150870000,614
Chulha Chauki Da Dhaba,"601, 3rd Floor, C Block, AECS Layout, Brookefield, Bangalore",12.9644558835,77.7157609910,5070
The Belgian Waffle Co.,"Shop G4, Building 534, 1st Cross, Block 'B', AECS Layout, Kundalahalli, Brookefield, Bangalore",12.9650152630,77.7174126870,0
Baskin Robbins,"Unit 04-07, 4th Floor, Ascendas Park Mall Sadarmangla, ITPL Main Road, Whitefield, Bangalore",12.9871031326,77.7364690108,183
Great Indian Khichdi by EatFit,"2nd Floor, Orbis Tower, Prashanth Extension, Hope Farm Junction, Kadigodi, Whitefield, Bangalore",12.9847417000,77.7489265000,190
Anjappar,"90/3, Outer Ring Road, Opposite Innovative Multiplex, Marathahalli, Bangalore",12.9503368374,77.6997066289,247
Glen's Bakehouse,"100, Whitefield Main Road, Near Whitefield, Bangalore, Whitefield, Bangalore",12.9675886753,77.7497518531,1503
Big Bowl Company,"710, Varthur Main Road, Thubarahalli, B.B.M.P East, Whitefield, Bangalore",12.9562850000,77.7214990000,1136
New Udupi Garden,"35/1B, L.S. Crown, Munnekolala, Marathahalli, Bangalore",12.9564057859,77.7103251591,31
LunchBox - Meals and Thalis,"122/3, Mahadevapura B.B.M.P East, Brookefield, Bangalore",12.9650534715,77.7181803435,332
Biryani Blues,"78/2, Floors 1 and 2, Nallurahalli, Main Road, Whitefield, Bangalore",12.9635760000,77.7323840000,1169
Ghee And Turmeric,"Unit 8, G-Location, White field hub, Thubarahalli, Varthur Rd, Whitefield, Bangalore",12.9560300329,77.7214936584,1157
Biryani Paradise,"31/8, 2nd Phase, Hoodi Road, Doddanakundi, Opposite HDFC ATM, Whitefield, Bangalore",12.9865336663,77.7086353675,114
ZAZA 22 Spice Awadhi Biryani,"120-P, A3, Santosh Towers, KIADB Industrial Area, EPIP Zone, Whitefield, Bangalore",12.9773682348,77.7249197289,415
NH1 Bowls - Highway To North,"120-P, A3, Santosh Towers, Kiadb Industrial Area, EPIP Zone, Mahadepura, BBMP East, Whitefield, Bangalore",12.9773950252,77.7249053121,309
WOW! China,"3rd Floor, Food Court, Forum Neighbourhood Mall, Main Road, Whitefield, Bangalore",12.9599407642,77.7476467565,9
The Biryani Life,"122/3, Kundhanahalli, Mahadevpura, ITPL Main Road, Whitefield, Bangalore",12.9650586992,77.7182071656,438
Samosa Party,"204, Prashant Extension, Hope Farm, Swami Vivekanand Road, Whitefield, Bangalore",12.9825335103,77.7484302968,4300
Andhra Biryanis,"107, Pattandur Agrahara, Near ITPL Gate, Whitefield, Bangalore",12.9835763819,77.7332281549,182
UBQ By Barbeque Nation,"1st Floor, Ascendas Park Square, Whitefield Road, International Tech Park, Whitefield, Bangalore",12.9874121631,77.7358141914,3394
Smoor,"Upper Ground Floor, Forum Shantiniketan Mall, Thigalarapalya, ITPL Main Road, Whitefield, Bangalore",12.9895360000,77.7281015000,635
The Dessert Heaven - Pure Veg,"1, 1st Floor, Nallurahalli, Dr. BR Ambedakar Road, Near Narayanappa Building, Brookefield, Bangalore",12.9693640000,77.7352210000,174
Shanghai Court,"101/9, Hoskote Main Road, Kadugodi, Seegehalli, Opposite Sai Garden, Whitefield, Bangalore",13.0084147909,77.7587152272,124
Kaati Zone Rolls and Wraps,"Shop 12 & 13, 2nd Floor, Arya Hub Mall, Hope Farm Signal, Prashanth Extension, Whitefield, Bangalore",12.9831977027,77.7520801127,2960
Zomoz - The Momo Company,"14/1P, 1st Floor, Umashankar Avenue, Hagahur Main Road, Whitefield, Bangalore",12.9624314578,77.7493248135,949
Chai Point,"1, 77/2A & 77/2B, Forum Shantiniketan Mall, Sadaramangala, Whitefield, Bangalore",12.9896395908,77.7275030315,147
Ludos Pizza,"201, 2nd Floor, Saptagiri Arcade, Near ICICI Bank, ITPL Main Road, Whitefield, Bangalore.",12.9916830000,77.7136390000,334
Dande's Hyderabad Biryani,"710, Thubarahalli, Varthur Main Road, Whitefield, Bangalore",12.9560535596,77.7215408161,10140
Nadan Pothichoru,"710, Thubarahalli, Varthur Main Road, Whitefield, Bangalore",12.9560731640,77.7215545624,2527
The Good Bowl,"123, Kamala Complex, Near AECS Layout, ITPL Main Road, Whitefield, Bangalore",12.9650152442,77.7182088420,1087
Udupi Gokula Veg,"61, 3rd Cross, Coconut Garden, Ayyappa Nagar, Kodigehalli Main Road, KR Puram, Bangalore",13.0046194873,77.7173414826,26
Adiga's,"7F, Doddanekkundi Industrial Area, Whitefield, Bangalore",12.9771000000,77.7107720000,188
Mangalore Kitchen,"5, First Floor, Apurva Sai Kuteer, HDFC Bank Building, Belathur, Kadugodi, Whitefield, Bangalore",13.0068007000,77.7574768000,11
Momoz,"54, Kundalahalli Gate, Shirdi Sai Nagar Main Road, Near More Super Market, Brookefield, Bangalore",12.9500179309,77.7156386152,58
The Parotta Combo,"66/2, 67/1, Garudacharpalya, Whitefield Main Road, Mahadevapura, Whitefield, Bangalore",12.9938559021,77.6992784813,601
Mealful Rolls - India's Biggest Rolls,"120-P, A3, Santosh Towers, KIADB Industrial Area, EPIP Zone, Whitefield, Bangalore",12.9773989458,77.7248509973,350
Biggies Burger,"313/314, Aecs B Block, Kundalahalli, Mahadevpura, Brookefield, Bangalore",12.9663464000,77.7140805000,4
Chaat Street,"Sri Vinayaka Tech Park Katha 101/267, 268/11, Ground Floor, Hoodi Graphite Main Road, Hoodi Village, Whitefield, Bangalore",12.9890400000,77.7120590000,796
Imperio Combo King,"66/2, 67/1, Garudacharpalya, Whitefield Main Road, Mahadevapura, Whitefield, Bangalore",12.9938588423,77.6992734522,1072
Keventers - Milkshakes & Desserts,"710, Thubarahalli, Varthur Main Road, Whitefield, Bangalore",12.9561480000,77.7215580000,1964
Mad Over Donuts,"Unit 009, Lower Ground Floor, Forum Shantiniketan Mall, ITPL Main Road, Sadarama, Hoodi, KR Puram, Bangalore",12.9898786000,77.7281616000,42
ITC Master Chef Creations,"710, Maruthi Seva Nagar, Varthur Main Road, Whitefield, Bangalore",12.9560810058,77.7215424925,849
Chinese BAE,"54, Kundalahalli Gate, Shirdi Sai Nagar Main Road, Near More Super Market, Brookefield, Bangalore",12.9500192379,77.7156168222,1332
Chung Wah's,"710, Varthur Road, Thubarahalli, Whitefield, Bangalore",12.9562850000,77.7214990000,23
Laddoos,"1, Ground Floor, 11th Cross, Kundalahalli, Doddanekundi, Mahadevapura, Marathahalli, Bangalore",12.9717572061,77.7117420360,7
Basmati Biriyani Nation,"710, Thubarahalli, Varthur Main Road, Whitefield, Bangalore",12.9561881767,77.7215522155,6932
Chaayos Chai+Snacks=Relax,"05 And 06, Ground Floor, Ascendas Park Square Mall, International Tech Park, Whitefield, Bangalore",12.9870639011,77.7364790440,101
Cream Stone Ice Cream,"28/1, SLN, HVP, Aster, KR Puram, Bangalore",12.9941228085,77.7035441995,1989
Cupcake Bliss Cakes & Desserts,"Shop 12 & 13, 2nd Floor, Arya Hub Mall, Hope Farm Signal, Prashanth Extension, Whitefield, Bangalore",12.9831875748,77.7520338446,1899
Yumlane Pizza,"284/1, Whitefield Main Road, Whitefield, Bangalore",12.9686470800,77.7495229700,60
Starbucks Coffee,"Ground Floor, Park Square Mall, ITPL Main Road, Whitefield, Bangalore",12.9870018280,77.7366191894,22
Punjabi Unplugged,"06, Siddapura, Main Road, Opposite Croma, Whitefield, Bangalore",12.9564348658,77.7326723188,1208
LeanCrust Pizza- ThinCrust Experts,"120-P, A3, Santosh Towers, KIADB Industrial Area, EPIP Zone, Whitefield, Bangalore",12.9773982924,77.7248644084,192
Krispy Kreme,"78/2, 1st & 2nd Floor, Siddapura Village Road, Nallurhalli, Whitefield, Bangalore",12.9635188209,77.7323041856,399
Momo Zone - The Momo Company,"Shop 12 Khata, 208/176/1, Hope farm, Pattandura Agrahara, Second Floor, Arya Hub Mall, Mahadevapura B.B.M.P East, ITPL Main Road, Whitefield, Bangalore",12.9833130000,77.7519460000,296
Lemon Leaf,"1st Floor, S B R Horizon Mall, Hoskote Road, Whitefield, Bangalore",13.0183274528,77.7626644447,76
Rajdhani,"2nd Floor, Phoenix Market City, Mahadevapura, Whitefield Main Road, Whitefield, Bangalore",12.9974863938,77.6966257766,1062
Sweet Truth - Cake and Desserts,"14/P1, 1st Floor, Umashankar Avenue, Hagdur Road, Whitefield, Bangalore",12.9648522064,77.7183007076,564
Ibaco,"353/A & B, B Block, Kundanahalli, Brookefield, Bangalore",12.9678600000,77.7183170000,4
Auntie Fung's,"66/2, 67/1, Mahadevapura, Garudacharpalya, Whitefield Main Road, Whitefield, Bangalore",12.9940462000,77.6993082998,1
Dilli Darbar,"Survey 166, AK Gopalan Colony, Main Road, Hope Farm, Opposite Government Polytechnic College, Whitefield, Bangalore",12.9802184608,77.7574384958,211
NH8,"304-305, 111 And 123/2, 3rd Floor, Brookfiled Mall, ITPL Main Road, Brookefield, Bangalore",12.9657340000,77.7180320000,1798
Itminaan Matka Biryani - Slow Cooked,"120-P, A3, Santosh Towers, KIADB Industrial Area, EPIP Zone, Whitefield, Bangalore",12.9774133211,77.7248560265,181
Pure Veg Meals By LunchBox,"122/3, ITPL Main Road, Kundalahalli, Mahadevapura, Brookefield, Bangalore",12.9650488973,77.7181944251,79
GOPIZZA,"Unit 02, Phoenix Market City Mall, Devasandra Industrial Estate, Whitefield, Bangalore",12.9976600000,77.6971400000,232
Pasta Street,"222/220/A, Ward 82, Sadaramangala Village, Hobli, Whitefield, Bangalore",12.9881792525,77.7299770340,2920
Daily Sushi,"66/1, Siddapura Village, Varthur Hobli, Whitefield, Bangalore",12.9566570000,77.7319676000,474
Hotel New Al Siddique,"Near Indian Oil Petrol Bunk, Old Madras Road, Battarahalli, KR Puram, Bangalore",13.0195076686,77.7081810683,9
The Filter Coffee,"28/1, SLN HVP Aster, Hoodi Village, KR Puram, Bangalore",12.9942110150,77.7035626397,2396
Erivum Puliyum,"272, AECS Layout Main Road, Brookefield, Bangalore",12.9635394049,77.7097950876,190
The Dessert Zone,"Khata No 208/176/1, Hope farm, Pattandur Agrahara, Whitefield, Shop no 12, Second Floor, Arya Hub Mall, Mahadevapura, Whitefield, Bangalore",12.9833130000,77.7519460000,142
Hyderabadi Kitchen,"832, 2nd Cross, Rajapalya Bus Stop, Whitefield Main Road, Mahadevpura, Whitefield, Bangalore",12.9909715295,77.7209949866,1059
AB's - Absolute Barbecues,"120-A2, 152, EPIP Industrial Area, Hoodi Village, Hobli, Whitefield, Bangalore",12.9770888584,77.7249233820,5124
Khan Saheb Grills And Rolls,"3/3 - 3/4, Whitefield Main Road, Mahadevapura, Whitefield, Bangalore",12.9790083276,77.7514407411,339
Toscano,"63, Unit 12, Upper Ground Floor, Prestige Shanthinikethan Mall, ITPL Main Road, Whitefield, Bangalore",12.9898600000,77.7280800000,243
Just Bake,"VK Murthy Farmhouse, Ground Floor, Immedhalli Main Road, Whitefield, Bangalore",12.9693822659,77.7534738556,45
Angaar Biryani,"134/2, Shop-W.13, 14, 15, Chancity, Ground Floor, Channasandra, Whitefield, Bangalore",12.9825230000,77.7670473000,76
Ghee Tadka Khichdi,"386/35, 1st Floor, Whitefield Village, Whitefield, Bangalore",12.9699149000,77.7512307000,242
Kabab Mandra,"P1, KSSIDC Industrial Estate, Near Phoenix Market City, KR Puram, Bangalore",12.9952691638,77.6972148567,224
Apsara Ice Creams,"278, 1st Cross, Hoodi, Opposite Ganesha Temple, Mahadevpura, Whitefield, Bangalore",12.9929016355,77.7170233056,482
Dil Punjabi,"49, Upkar Layout, ITPL Main Road, Whitefield, Bangalore",12.9857190000,77.7446940000,269
Tharavadu Malabar Biryani,"710, Varthur Main Road, Thubarahalli, Varthur Main Road, Whitefield, Bangalore",12.9562850000,77.7214990000,1542
Punjab On Cloud,"Shop 6, Ground Floor, R R Sai Complex, Basavanna Nagar, Near Kindergarten Pre School, Whitefield, Bangalore",12.9890238000,77.7185344000,643
Aubree,"Site 43, Ground Floor, Sakkama Chikkana Tower 3, B Chikkanna Layout, Marathahalli, Bangalore",12.9915340000,77.6908470000,664
NISO Chinese Restaurant,"15, 1st Floor, Kodigehalli, Main Road, Ayyappa Nagar, KR Puram, Bangalore",13.0046080536,77.7171805501,8529
XO Belgian Waffle,"Door 590, AECS Layout, Kundalahalli, 60 Feet Main Road, Brookefield, Bangalore",12.9642657268,77.7142884582,159
Mainland China,"28/2, 1st Floor, Siddapura, Main Road, Whitefield, Bangalore",12.9556843422,77.7252590284,3003
B2H - Biryani 2 Home,"Shop 6, Basavanna Nagar, Whitefield, Bangalore",12.9890607491,77.7185178994,0
Punjab Beat,"Sree Rama Complex, 3rd Floor, Vasthu Bhoomi Layout, Seegahalli Village, Hobli, Hoskote Main Road, Whitefield, Bangalore",13.0165053429,77.7622681484,643
Sangam Sweets,"2/1, Anmol Carlson Court, Whitefield, Bangalore",12.9750655316,77.7509017074,4
Paris Panini - Gourmet Sandwiches,"66/1, Old 66, Ground Floor, Miraya Rose, Siddapufre, Whitefield, Bangalore",12.9569334022,77.7321598685,104
Sri Sai Palace,"NFF5,  Apurva Sai Kuteer, Belathur Kadugodi, Whitefield, Bangalore",13.0069512963,77.7572996914,191
Brik Oven,"Plot 120-P, A3, Santosh Towers, EPIP, KIADB, Hoodi Village, Whitefield, Bangalore",12.9772208873,77.7250132710,101
Chaatimes,"Anjanadri Complex, 3rd Cross, Opposite Reliance Smart, Coconut Garden, Kodigehalli Main Road, Ayyappa Nagar, KR Puram, Bangalore",13.0045695057,77.7173240483,1817
Sendhoor Coffee,"Ramanjaneya Buliding, White filed Main Road, Mahadevpura, Opposite Garudachar Palya Bus Stop, KR Puram, Bangalore",12.9938494000,77.7015728000,1
Empire Juices and Desserts,"Site 4, Survey 7/3, Varthur Hobli, Mahadevapur A, BBMP East, Brookefield, Bangalore",12.9601263500,77.7162216604,1029
Udupi Aatithya,"304, Ground Floor, K N Gopal Krishna Building, Opposite Brigade Cosmopolis, Whitefield, Bangalore",12.9617306158,77.7475458384,11
Pinds Of Punjab,"New Renissance Nature Walk Villa, Opposite Dia Accademy Of Learning School, KR Puram, Bangalore",13.0044669291,77.7182594687,17
Ice Corner,"710, Thubarahalli, Varthur Main Road, Whitefield, Bangalore",12.9556539553,77.7214724198,10889
Mayuri Multicuisine Family Restaurant,"116, 6th Cross, Muneshwara Layout, Kodigelli Main Road, Ayyappa Nagar, KR Puram, Bangalore",13.0045891063,77.7141134441,160
The Thickshake factory,"5th Floor, Khatha 208, Thubrahalli Village, Varthur Hobli, Brookefield, Bangalore",12.9555706900,77.7193713400,5
The Momo Co.,"710, Varthur Main Road, Thubarahalli, B.B.M.P East, Whitefield, Bangalore",12.9562850000,77.7214990000,278
NOTO - Healthy Ice Cream,"278, First Cross, Opposite Ganesha Temple, Thiglaryapalya, Hoodi, KR Puram, Bangalore",12.9928750000,77.7170170000,311
Kerala Tiffin,"Shop 4, Ground Floor, J.R.V Nest, Whitefield, K.R Puram Hobli, ITPL Main Road, Whitefield, Bangalore",12.9805520192,77.7477949207,10091
Chopstick,"54, Kundalahalli Gate, Shirdi Sai Nagar Main Road, Near More Super Market, Brookefield, Bangalore",12.9500218519,77.7156024054,713
New Udupi Veg,"91, Immadihalli, Whitefield, Bangalore",12.9669743037,77.7611986175,30
Kapital Kitchen,"C8 & C9, Ajith Layout, Chikkabasavanapura Main Road, Near State Bank Of India, Virgonagar Post, KR Puram, Bangalore",13.0145799938,77.7093840390,103
Cafe Coffee Day,"Ground Floor, Phoenix Market City, Whitefield, Bangalore",12.9976685000,77.6970863000,36
Basmati Express,"710, Thubarahalli, Varthur Main Road, Whitefield, Bangalore",12.9562850000,77.7214990000,554
Sri Udupi Sannidhi,"A-24, Geetha Towers, Outer Ring Road, Kamadhenu Nagar, Near Skoda Showroom, B Narayanapura, KR Puram, Bangalore",12.9945726613,77.6851791143,27
Kerala Kitchen,"C-52, Hagadur Main Road, Prestige Ozone, Whitefield, Bangalore",12.9637820000,77.7538110000,2674
Arabian Shawarma,"204, Shop 2, Prashanth Extension, Near Hope Farm, ITPL Main Road, Whitefield, Bangalore",12.9825223000,77.7484573000,2
Momo Monk,"Saptgiri Arcade, 2nd Floor, Above Tansi Honda Showroom, Keb Colony, ITPL Main Road, Whitefield, Bangalore",12.9920620000,77.7135670000,202
Belgian Waffle Factory,"3rd Floor, Food Court, Nexus Shantiniketan Mall, Thigalarapalya, Krishnarajapura, ITPL Main Road, Whitefield, Bangalore",12.9895360000,77.7281015000,0
Indiana Burgers,"Khata No 208/176/1, Hope Farm, Pattandur Agrahara, Whitefield, Shop 12, Second Floor, Arya Hub Mall, Mahadevapura, Whitefield, Bangalore",12.9833130000,77.7519460000,4795
Crusto’s - Cheese Burst Pizza,"SRI Vinayaka, Tech Park, Khata 101/267, 268/11, Grounf Floor Graphite Main Road, Whitefield, Bangalore",12.9890400000,77.7120590000,87
Schezwan Hub,"66/2, 67/1, Garudacharpalya, Whitefield Main Road, Mahadevapura, Whitefield, Bangalore",12.9941430000,77.6994050000,351
Bhojanam,"Raj Pinnacle Building, Kitchen 4, 1st Floor, Plot 7F, Behind RxDx Hospital, Doddanakundi Industrial Area 2, Mahadevpura, Near Whitefield, Bangalore",12.9769733897,77.7109344993,1997
Estaa Sweets,"95, Vydehi Hospital Circle, Opposite BMTC Bus Stand, Epip Industrial Area, Phase 2, Whitefield, Bangalore",12.9758787467,77.7268797532,38
Third Wave Coffee,"24, Upper Ground Floor, Forum Shantiniketan Mall, ITPL Main Road, Whitefield, Bangalore",12.9897346595,77.7281095460,242
IFC - Imperio Fried Chicken,"3, Ground Floor, A Square Plaza, ITPL Main Road, Brookefield, Bangalore",12.9622697252,77.7166742831,1262
TrueCakes,"27, Ground Floor, Vinayaka Nilaya, 1st Cross, Lakshmi Layout, Marathahalli, Bangalore",12.9558410000,77.7053760000,1161
Kolkata famous Kati roll,"Near Sri Manjunatha Medical, Ravindra Reddy Layout, Belture Main Road, Kadugodi, ITPL Main Road, Whitefield, Bangalore",13.0045873000,77.7538102000,212
Home Plate by EatFit,"2nd Floor, Orbis Tower, Prashanth Extension, Hope Farm Junction, Kadigodi, ITPL Main Road, Whitefield, Bangalore",12.9846170000,77.7492120000,23
Lassi Corner,"74/A, Nagondahalli Main Road, Opposite Sapthagiri Convention Hall, Immedihalli, Whitefield, Bangalore",12.9679482846,77.7579930278,114
Oh! Calcutta,"28/2, Siddapura, Whitefield Main Road, Whitefield, Bangalore",12.9556898968,77.7252600342,29
Singh Da Punjabi Dhaba,"6 Siddapura, Whitefield Main Road, Brookefield, Bangalore",12.9563788000,77.7325720000,456
Udupi Garden,"11/4, 11/2, Ground Floor, Near Vibgyor School, Katumnallur Kadugodi Main Road, Whitefield, Bangalore",13.0151330000,77.7619179000,492
Subbayyaa Gari Hotel,"Plot 2, Survey 115/6, 4th Floor, Kundanahalli, Hobli, B.B.M.P East, Mahadevapura, Brookefield, Bangalore",12.9624281905,77.7167279273,57
HOMMS,"5/2, Vyjanti Mala Complex, Varthur Main Road, Near Apollo Medical Center, Brookefield, Bangalore",12.9571939433,77.7170423685,447
Khanna's,"5/2, Vyjanti Mala Complex, Varthur Main Road, Near Apollo Medical Center, Brookefield, Bangalore",12.9571939433,77.7170423685,1750
Rolls Plaza,"98 A, Main Road, Manjunath Layout, Munnekolala, Marathahalli, Bangalore",12.9497829985,77.7124742791,130
Puchkas,"66/2, 67/1, Garudacharpalya, Mahadevpura, Whitefield, Bangalore",12.9938585156,77.6992761344,3726
Haka,"66/2, 67/1, Garudacharpalya, Whitefield Main Road, Mahadevapura, KR Puram, Bangalore",12.9935514000,77.6992270000,81
Firangi Bake,"122/3, Kundhanahalli, Mahadevpura, ITPL Main Road, Whitefield, Bangalore",12.9650149175,77.7182574570,1140
Snack House,"Saptgiri Arcade, Second Floor, KEB Colony, Industrial Area, Hoodi, ITPL Main Road, Whitefield, Bangalore",12.9917026716,77.7133500203,848
The Ganache Factory,"7F, Raj Pinnacle, Doodanekundi Industrail Area, KR Puram, Brookefield, Bangalore",12.9769733897,77.7109344993,565
Biryani Mount,"3A Square Plaza, Ground Floor, ITPL Main Road, Kundalahalli, Brookefield, Bangalore",12.9622746262,77.7166699246,198
Kulfi Shulfi- Kulfis and Ice Cream,"Shop 17, JK Arcade Main Road, Whitefield, Bangalore",12.9695770000,77.7498150000,0
Krutunga Restaurant,"Ground Floor,  1st Main,6th Cross, Ambedkar Nagar, Whitefield, Bangalore",12.9799822500,77.7523935959,3033
Bangalore Mandarin,"619, 2nd Floor, Whitefield Main Road, Whitefield, Bangalore",12.9700406124,77.7501251176,888
Bangaliana,"35/1B, 3rd Floor, CRM Soubhagya Annex, Varthur Main Road, Marathahalli, Bangalore",12.9563864000,77.7099479000,167
SLAY Coffee,"14/1P, 1st Floor, Umashankar Avenue, Hagdur Main Road, Whitefield, Bangalore",12.9624726261,77.7492916211,949
Hotel Manu,"10, 11, Survey 38/2, New Katha 814/567, Sai Colony, Human Road, Bellathur, Kadugodi, Whitefield, Bangalore",13.0025676209,77.7570901439,99
Burger Seigneur,"78/2, Nellurhali Road, Siddapura Village, Varthur Hobli, Whitefield, Bangalore",12.9634979101,77.7323212847,889
Chef Bakers,"580/295, Silver Square, Whitefield Road, Whitefield, Bangalore",12.9698749641,77.7497452497,129
Dum Safar Biryani,"1st Floor, Ascendas Park Square Mall, ITPL Main Road, Whitefield, Bangalore",12.9871100000,77.7359100000,82
Kallayi Restaurant,"Shop 69, Basanavapara Main Road, Opposite Sangeetha Mobile, Ayyappanagar Circle, KR Puram, Bangalore",13.0046949497,77.7101840079,5
Punjabites By Empire,"710, Varthur Road, Thubarahalli, Whitefield, Bangalore",12.9559686070,77.7216548100,79
Haveli Hyderabadi Dum Biryani,"134/2, Shoe EE-07, EE-08, W-12, Chancity, Channasandra, Kadugodi, Whitefield, Bangalore",12.9830271626,77.7669697255,97
Khawar Ashe Pashe,"12, 2nd Cross, Shakthi Layout, Kodigehalli Main Road, KR Puram, Bangalore",13.0060245208,77.7334806696,1821
SGS Non Veg Gundu Palav,"766, Ganesh Complex, Kadugodi Post, Seegehalli, Near SBI, Whitefield, Bangalore",13.0125399699,77.7623630315,31
Kalinga Spices,"150, Khata 284/1, Green Garden Layout, Munnekolala, Brookefield, Bangalore",12.9510049820,77.7158203125,263
Rusbury Fresh Sweets And Savouries,"Shop 4, 1st Floor, Near Victorian View Layout, Borewell Road, Whitefield, Bangalore",12.9692920000,77.7373440000,437
Natraj Chole Bhature,"191, Ground Floor, Mojatel, A.E.C.S Layout, Kundanahalli, Brookefield, Bangalore",12.9659382903,77.7138268819,35
Udupi Upachar,"AECS Layout, Kundalahalli, Brookefield, Bangalore",12.9623641509,77.7133905888,113
Punjab Grill,"Ground Floor, Forum Shantiniketan, Whitefield Main Road, Hoodi, Whitefield, Bangalore",12.9893534000,77.7283305000,2069
FB Café By Frozen Bottle,"SY-111 & 123/2(P), 001A, Ground Floor, Kundalahalli, Brookefield, Bangalore",12.9664154900,77.7180225100,12
Lulu's Family Restaurant,"Devasandra Main Road, Ayyappa Nagar, KR Puram, Bangalore",13.0044643157,77.7100002766,136
The Tandoori Tales,"1st Floor, Dinesh Complex, Kanmangala Village, Hoskote Main Road, Whitefield, Bangalore",13.0200982306,77.7622798022,2150
Bowl 99,"98, Kadugodi, Ganigara Street, Whitefield, Bangalore",12.9978700000,77.7655500000,21
Imperio Juice & Cafe,"3, Ground Floor, A Square Plaza, Near Brookefield Mall, Brookefield, Bangalore",12.9622713589,77.7166749537,1770
Namma Madurai,"Shop 320/321, Spice Garden Layout, Lakshminarayana Pura, Marathahalli, Bangalore",12.9575830284,77.7088787779,90
Swiss Cream,"38/B1, Ground Floor, Kunnaj Arcade Aravind Avenue, L N Pura, AECS Layout, Brookefield, Bangalore",12.9599370000,77.7138130000,5
Alpha Biryani,"Survey 166, Pattanduru Agrahara Village, Main Road, Near Global School, Whitefield, Bangalore",12.9805157658,77.7578056231,1166
New Udupi Upahar,"49, Sai Temple Road, Green Garden Layout, Near Kundanahalli Gate, Marathahalli, Bangalore",12.9509230231,77.7156158164,66
New Udupi Upahar,"Ground Floor, Varthur Main Road, Near Sigma Teck Park, Ramagondanahalli, Varthur Main Road, Whitefield, Bangalore",12.9568694299,77.7434313297,38
Awadhi Delights,"Room 1, 1 Floor, 11Cross, Kundalahali Colony, Opposite Sjr Apartment, Brookefield, Bangalore",12.9716921000,77.7117824000,1853
Punjabi Chaap Corner,"6/4, Om Shakti, Nilaya Kundahalli Gate, ITPL Main Road, Brookefield, Bangalore",12.9584890734,77.7158954367,4
Laziz Pizza,"Shop 201, Phase 2, Ramagondanahalli Borewell Road, Whitefield, Bangalore",12.9586305507,77.7421713620,12
Hungry Chang,"710, Thubarahalli, Whitefield, Bangalore",12.9561293634,77.7216192707,1039
Olio - The Wood Fired Pizzeria,"Khata 101/267, 268/11, Ground Floor, Sri Vinayaka Tech Park, Graphite Main Road, Whitefield, Bangalore",12.9890400000,77.7120590000,125
Rolls & Bowls Company,"710, Varthur Main Road, Thubarahalli, B.B.M.P East, Whitefield, Bangalore",12.9559689337,77.7216273174,68
Kapoor's Chaat Bhandaar,"1644, E Block, 6th Main Road, AECS Layout, Kundanahalli Gate, Brookefield, Bangalore",12.9608151073,77.7162873745,81
Louis Burger,"78/2, Siddapura Village, K R Puram, Whitefield, Bangalore",12.9635236650,77.7323568656,978
New Paratha Corner,"14, ECC Road, Near GR Tech Park, Whitefield, Bangalore",12.9856646408,77.7448250726,129
Lakeview Milkbar,"273, Whitefield Main Road, Whitefield, Bangalore",12.9681603178,77.7495075390,42
Asia Kitchen By Mainland China,"28\2, 1st Floor, Siddapura, Whitefield Main Road, Whitefield, Bangalore",12.9556833620,77.7252627164,589
